SEQPLT,YEAR,PSTATABB,PNAME,ORISPL,LAT,LON,PLPRMFL,PLFUELCT,NAMEPCAP,COALFLAG,TOTALPOP,RAW_D_INDEX,RAW_D_LING,RAW_D_INCOME,RAW_D_MINOR,RAW_D_OVER64,RAW_D_UNDER5,RAW_D_LESSHS,N_D_INDEX_PER,N_D_LING_PER,N_D_INCOME_PER,N_D_MINOR_PER,N_D_OVER64_PER,N_D_UNDER5_PER,N_D_LESSHS_PER,S_D_INDEX_PER,S_D_LING_PER,S_D_INCOME_PER,S_D_MINOR_PER,S_D_OVER64_PER,S_D_UNDER5_PER,S_D_LESSHS_PER,N_D_INDEX,N_D_LING,N_D_INCOME,N_D_MINOR,N_D_OVER64,N_D_UNDER5,N_D_LESSHS,S_D_INDEX,S_D_LING,S_D_INCOME,S_D_MINOR,S_D_OVER64,S_D_UNDER5,S_D_LESSHS,DISTANCE
1,2021,AK,Agrium Kenai Nitrogen Operations,54452,60.6732,-151.3784,NG,GAS,12.5,,1839,0.22,0,0.26,0.17,0.17,0.05,0.06,36,0,47,36,56,48,40,27,0,56,16,74,37,52,0.35,0.05,0.3,0.4,0.16,0.06,0.12,0.33,0.02,0.25,0.4,0.12,0.07,0.07,3
2,2021,AK,Alakanuk,57053,62.6833,-164.6544,JF,OIL,0.8,,1073,0.86,0.01,0.72,1,0.07,0.15,0.23,97,59,94,97,15,96,84,99,64,98,99,20,96,96,0.35,0.05,0.3,0.4,0.16,0.06,0.12,0.33,0.02,0.25,0.4,0.12,0.07,0.07,3
3,2021,AK,Allison Creek Hydro,58982,61.084444,-146.353333,WAT,HYDRO,6.5,,31,0.27,0,0.13,0.4,0.41,0,0.05,46,0,24,59,96,0,37,45,0,24,55,99,0,46,0.35,0.05,0.3,0.4,0.16,0.06,0.12,0.33,0.02,0.25,0.4,0.12,0.07,0.07,3
4,2021,AK,Ambler,60243,67.08798,-157.856719,DFO,OIL,1.1,,231,0.8,0.07,0.68,0.92,0.11,0.11,0.21,95,79,93,90,32,87,82,97,87,97,95,44,83,94,0.35,0.05,0.3,0.4,0.16,0.06,0.12,0.33,0.02,0.25,0.4,0.12,0.07,0.07,3
5,2021,AK,Angoon,7462,57.499166,-134.58614,DFO,OIL,1.5,,245,0.51,0.01,0.35,0.67,0.18,0.04,0.06,75,58,62,77,61,44,40,83,63,77,82,80,33,53,0.35,0.05,0.3,0.4,0.16,0.06,0.12,0.33,0.02,0.25,0.4,0.12,0.07,0.07,3
6,2021,AK,Aniak,7182,61.580678,-159.535643,DFO,OIL,2.2,,489,0.72,0.01,0.55,0.88,0.08,0.11,0.19,91,57,84,88,20,90,78,94,59,94,93,26,87,92,0.35,0.05,0.3,0.4,0.16,0.06,0.12,0.33,0.02,0.25,0.4,0.12,0.07,0.07,3
7,2021,AK,Annex Creek,62,58.3176,-134.101,WAT,HYDRO,4,,0,N/A,N/A,N/A,N/A,N/A,N/A,N/A,N/A,N/A,N/A,N/A,N/A,N/A,N/A,N/A,N/A,N/A,N/A,N/A,N/A,N/A,0.35,0.05,0.3,0.4,0.16,0.06,0.12,0.33,0.02,0.25,0.4,0.12,0.07,0.07,3
8,2021,AK,Auke Bay,7250,58.3875,-134.6446,DFO,OIL,36.2,,13118,0.21,0.03,0.1,0.32,0.13,0.06,0.05,34,68,16,52,39,57,33,25,77,16,43,54,48,40,0.35,0.05,0.3,0.4,0.16,0.06,0.12,0.33,0.02,0.25,0.4,0.12,0.07,0.07,3
9,2021,AK,Aurora Energy LLC Chena,79,64.847743,-147.735063,SUB,COAL,27.5,Yes,33387,0.35,0.05,0.28,0.4,0.11,0.08,0.07,58,74,51,59,32,75,43,62,82,63,55,45,70,59,0.35,0.05,0.3,0.4,0.16,0.06,0.12,0.33,0.02,0.25,0.4,0.12,0.07,0.07,3
10,2021,AK,Barrow,7173,71.292,-156.7786,NG,GAS,20.3,,4296,0.59,0.08,0.26,0.92,0.08,0.08,0.14,82,81,48,90,20,77,67,90,90,57,95,27,73,86,0.35,0.05,0.3,0.4,0.16,0.06,0.12,0.33,0.02,0.25,0.4,0.12,0.07,0.07,3
11,2021,AK,Battery Energy Storage System,57583,64.8167,-147.725,MWH,OTHF,40,,26372,0.34,0.04,0.28,0.4,0.11,0.09,0.07,58,72,51,59,33,79,43,61,81,63,55,48,74,59,0.35,0.05,0.3,0.4,0.16,0.06,0.12,0.33,0.02,0.25,0.4,0.12,0.07,0.07,3
12,2021,AK,Beaver Falls,6580,55.37975,-131.470269,WAT,HYDRO,5.4,,0,N/A,N/A,N/A,N/A,N/A,N/A,N/A,N/A,N/A,N/A,N/A,N/A,N/A,N/A,N/A,N/A,N/A,N/A,N/A,N/A,N/A,0.35,0.05,0.3,0.4,0.16,0.06,0.12,0.33,0.02,0.25,0.4,0.12,0.07,0.07,3
13,2021,AK,Beluga,96,61.1861,-151.0356,NG,GAS,312.4,,35,0.66,0.02,0.49,0.82,0.02,0.04,0.02,87,61,79,84,4,36,15,93,67,91,91,4,24,18,0.35,0.05,0.3,0.4,0.16,0.06,0.12,0.33,0.02,0.25,0.4,0.12,0.07,0.07,3
14,2021,AK,Bernice Lake,6292,60.6935,-151.3874,NG,GAS,76.7,,1726,0.27,0,0.32,0.21,0.17,0.06,0.06,45,0,57,40,57,62,40,45,0,70,23,75,53,53,0.35,0.05,0.3,0.4,0.16,0.06,0.12,0.33,0.02,0.25,0.4,0.12,0.07,0.07,3
15,2021,AK,Bethel,6566,60.7897,-161.787778,DFO,OIL,12.6,,6064,0.54,0.04,0.3,0.78,0.07,0.07,0.07,78,71,53,82,14,69,42,85,80,65,89,18,63,56,0.35,0.05,0.3,0.4,0.16,0.06,0.12,0.33,0.02,0.25,0.4,0.12,0.07,0.07,3
16,2021,AK,Black Bear Lake,7752,55.476472,-133.14772,WAT,HYDRO,4.5,,1228,0.32,0,0.27,0.37,0.16,0.07,0.08,54,0,49,57,54,70,47,56,0,60,51,72,64,62,0.35,0.05,0.3,0.4,0.16,0.06,0.12,0.33,0.02,0.25,0.4,0.12,0.07,0.07,3
17,2021,AK,Blue Lake Hydro,93,57.0516,-135.2297,WAT,HYDRO,15.9,,1864,0.24,0.02,0.12,0.36,0.11,0.04,0.06,41,63,21,56,31,39,39,35,71,21,49,44,27,52,0.35,0.05,0.3,0.4,0.16,0.06,0.12,0.33,0.02,0.25,0.4,0.12,0.07,0.07,3
18,2021,AK,Bradley Lake,7367,59.77862,-150.94015,WAT,HYDRO,126,,3,0.41,0.01,0.24,0.57,0.2,0.03,0.07,65,57,44,71,69,29,43,73,60,52,76,85,19,57,0.35,0.05,0.3,0.4,0.16,0.06,0.12,0.33,0.02,0.25,0.4,0.12,0.07,0.07,3
19,2021,AK,Brevig Mission,60260,65.331716,-166.479506,DFO,OIL,1,,411,0.8,0.01,0.65,0.95,0.08,0.1,0.2,95,58,91,92,19,86,80,96,64,96,97,25,82,93,0.35,0.05,0.3,0.4,0.16,0.06,0.12,0.33,0.02,0.25,0.4,0.12,0.07,0.07,3
20,2021,AK,Centennial,7112,55.121433,-131.560267,DFO,OIL,3.3,,1554,0.65,0,0.4,0.91,0.13,0.04,0.08,86,0,69,89,39,38,50,93,0,83,94,55,27,66,0.35,0.05,0.3,0.4,0.16,0.06,0.12,0.33,0.02,0.25,0.4,0.12,0.07,0.07,3
21,2021,AK,Chester Lake,7168,55.116879,-131.545879,WAT,HYDRO,1.3,,1554,0.65,0,0.4,0.91,0.13,0.04,0.08,86,0,69,89,39,38,50,93,0,83,94,55,27,66,0.35,0.05,0.3,0.4,0.16,0.06,0.12,0.33,0.02,0.25,0.4,0.12,0.07,0.07,3
22,2021,AK,Chevak,6311,61.525297,-165.590152,DFO,OIL,1.8,,683,0.83,0.02,0.74,0.92,0.06,0.14,0.17,96,62,95,90,11,94,74,98,71,98,96,13,94,90,0.35,0.05,0.3,0.4,0.16,0.06,0.12,0.33,0.02,0.25,0.4,0.12,0.07,0.07,3
23,2021,AK,Cooper Lake,6291,60.392331,-149.665603,WAT,HYDRO,19.4,,0,N/A,N/A,N/A,N/A,N/A,N/A,N/A,N/A,N/A,N/A,N/A,N/A,N/A,N/A,N/A,N/A,N/A,N/A,N/A,N/A,N/A,0.35,0.05,0.3,0.4,0.16,0.06,0.12,0.33,0.02,0.25,0.4,0.12,0.07,0.07,3
24,2021,AK,Craig (AK),421,55.47691,-133.14869,DFO,OIL,4.6,,1228,0.32,0,0.27,0.37,0.16,0.07,0.08,54,0,49,57,54,70,47,56,0,60,51,72,64,62,0.35,0.05,0.3,0.4,0.16,0.06,0.12,0.33,0.02,0.25,0.4,0.12,0.07,0.07,3
25,2021,AK,Delta Power,56325,64.028056,-145.719444,DFO,OIL,23.1,,779,0.22,0.04,0.29,0.16,0.13,0.06,0.06,37,70,52,33,39,63,40,30,80,64,13,56,53,53,0.35,0.05,0.3,0.4,0.16,0.06,0.12,0.33,0.02,0.25,0.4,0.12,0.07,0.07,3
26,2021,AK,Delta Wind Farm,58511,64.013889,-145.596667,WND,WIND,1.9,,490,0.18,0.07,0.19,0.17,0.13,0.08,0.07,27,79,34,35,40,73,46,17,87,40,15,56,68,62,0.35,0.05,0.3,0.4,0.16,0.06,0.12,0.33,0.02,0.25,0.4,0.12,0.07,0.07,3
27,2021,AK,Dillingham,109,59.042914,-158.468597,DFO,OIL,11,,1185,0.52,0.03,0.26,0.78,0.1,0.09,0.1,76,66,47,82,25,80,56,84,75,57,89,34,75,74,0.35,0.05,0.3,0.4,0.16,0.06,0.12,0.33,0.02,0.25,0.4,0.12,0.07,0.07,3
28,2021,AK,Dutch Harbor,7502,53.892459,-166.538185,DFO,OIL,21.9,,2912,0.5,0.07,0.21,0.8,0.08,0.04,0.1,75,80,38,83,18,37,56,83,89,46,90,23,25,74,0.35,0.05,0.3,0.4,0.16,0.06,0.12,0.33,0.02,0.25,0.4,0.12,0.07,0.07,3
29,2021,AK,Eielson AFB Central Heat & Power Plant,50392,64.67141,-147.075988,SUB,COAL,31,Yes,3567,0.2,0.02,0.18,0.22,0.01,0.11,0.06,32,62,32,42,0,89,41,22,68,37,25,1,86,55,0.35,0.05,0.3,0.4,0.16,0.06,0.12,0.33,0.02,0.25,0.4,0.12,0.07,0.07,3
30,2021,AK,Eklutna Generation Station,58989,61.457778,-149.351389,NG,GAS,171,,279,0.13,0,0.11,0.15,0.14,0.04,0.03,16,0,19,32,43,39,21,7,58,18,11,60,27,25,0.35,0.05,0.3,0.4,0.16,0.06,0.12,0.33,0.02,0.25,0.4,0.12,0.07,0.07,3
31,2021,AK,Eklutna Hydro Project,77,61.475211,-149.15009,WAT,HYDRO,44.4,,215,0.22,0,0.24,0.2,0.09,0.05,0.15,37,0,45,39,24,54,71,30,0,54,23,32,44,88,0.35,0.05,0.3,0.4,0.16,0.06,0.12,0.33,0.02,0.25,0.4,0.12,0.07,0.07,3
32,2021,AK,Elim,57060,64.616558,-162.263717,DFO,OIL,1.1,,352,0.8,0.01,0.65,0.95,0.08,0.1,0.2,95,58,91,92,19,86,80,96,64,96,97,25,82,93,0.35,0.05,0.3,0.4,0.16,0.06,0.12,0.33,0.02,0.25,0.4,0.12,0.07,0.07,3
33,2021,AK,Emmonak,6314,62.777694,-164.531517,DFO,OIL,3.2,,1171,0.86,0.01,0.72,1,0.07,0.15,0.23,97,59,94,97,15,96,84,99,64,98,99,20,96,96,0.35,0.05,0.3,0.4,0.16,0.06,0.12,0.33,0.02,0.25,0.4,0.12,0.07,0.07,3
34,2021,AK,ESS Battery Microgrid,58405,57.799167,-152.404167,MWH,OTHF,3,,9903,0.39,0.09,0.19,0.58,0.12,0.06,0.11,63,83,35,71,33,58,58,69,91,42,76,48,49,76,0.35,0.05,0.3,0.4,0.16,0.06,0.12,0.33,0.02,0.25,0.4,0.12,0.07,0.07,3
35,2021,AK,Eva Creek Wind,57935,64.058333,-148.9,WND,WIND,24.6,,3,0.26,0,0.32,0.19,0.1,0.01,0.02,44,0,58,38,27,15,18,42,0,70,20,38,9,21,0.35,0.05,0.3,0.4,0.16,0.06,0.12,0.33,0.02,0.25,0.4,0.12,0.07,0.07,3
36,2021,AK,Eyak Service Center BESS,62714,60.54047,-145.74079,MWH,OTHF,1,,1636,0.25,0,0.1,0.39,0.13,0.04,0.06,42,0,18,59,41,40,41,38,0,16,53,58,28,55,0.35,0.05,0.3,0.4,0.16,0.06,0.12,0.33,0.02,0.25,0.4,0.12,0.07,0.07,3
37,2021,AK,Fairbanks,6286,64.854171,-147.719351,DFO,OIL,42.2,,31439,0.34,0.05,0.28,0.39,0.12,0.08,0.07,57,74,51,59,34,75,44,60,83,63,54,49,70,59,0.35,0.05,0.3,0.4,0.16,0.06,0.12,0.33,0.02,0.25,0.4,0.12,0.07,0.07,3
38,2021,AK,False Island,56146,55.48918,-133.1345,DFO,OIL,1.3,,1228,0.32,0,0.27,0.37,0.16,0.07,0.08,54,0,49,57,54,70,47,56,0,60,51,72,64,62,0.35,0.05,0.3,0.4,0.16,0.06,0.12,0.33,0.02,0.25,0.4,0.12,0.07,0.07,3
39,2021,AK,Fire Island Wind,58425,61.13,-150.243611,WND,WIND,18,,0,N/A,N/A,N/A,N/A,N/A,N/A,N/A,N/A,N/A,N/A,N/A,N/A,N/A,N/A,N/A,N/A,N/A,N/A,N/A,N/A,N/A,0.35,0.05,0.3,0.4,0.16,0.06,0.12,0.33,0.02,0.25,0.4,0.12,0.07,0.07,3
40,2021,AK,Flywheel Energy Storage System Microgrid,60563,57.780114,-152.443783,MWH,OTHF,2,,6307,0.41,0.12,0.21,0.61,0.13,0.07,0.11,66,87,39,74,40,68,58,73,95,47,78,57,61,76,0.35,0.05,0.3,0.4,0.16,0.06,0.12,0.33,0.02,0.25,0.4,0.12,0.07,0.07,3
41,2021,AK,Fort Greely Power Plant,54834,63.973572,-145.716581,DFO,OIL,7.4,,102,0.36,0,0,0.71,0,0,0,59,0,0,79,0,0,0,63,0,0,85,0,0,0,0.35,0.05,0.3,0.4,0.16,0.06,0.12,0.33,0.02,0.25,0.4,0.12,0.07,0.07,3
42,2021,AK,Galena Electric Utility,7437,64.74417,-156.8736,DFO,OIL,3.9,,494,0.47,0.02,0.26,0.68,0.11,0.09,0.08,72,61,48,77,32,80,49,79,68,57,82,45,75,64,0.35,0.05,0.3,0.4,0.16,0.06,0.12,0.33,0.02,0.25,0.4,0.12,0.07,0.07,3
43,2021,AK,Gambell,57062,63.777058,-171.712439,DFO,OIL,1.6,,615,0.8,0.01,0.65,0.95,0.08,0.1,0.2,95,58,91,92,19,86,80,96,64,96,97,25,82,93,0.35,0.05,0.3,0.4,0.16,0.06,0.12,0.33,0.02,0.25,0.4,0.12,0.07,0.07,3
44,2021,AK,George M Sullivan Generation Plant 2,6559,61.229713,-149.716744,NG,GAS,346.9,,52357,0.46,0.03,0.33,0.58,0.09,0.1,0.09,70,67,59,72,23,84,54,78,75,73,76,31,80,72,0.35,0.05,0.3,0.4,0.16,0.06,0.12,0.33,0.02,0.25,0.4,0.12,0.07,0.07,3
45,2021,AK,Glennallen,6305,62.110415,-145.532529,DFO,OIL,9.2,,478,0.4,0.01,0.34,0.46,0.12,0.07,0.04,64,57,60,63,36,70,30,71,59,74,62,51,65,35,0.35,0.05,0.3,0.4,0.16,0.06,0.12,0.33,0.02,0.25,0.4,0.12,0.07,0.07,3
46,2021,AK,Goat Lake Hydro,7751,59.5357,-135.2123,WAT,HYDRO,4,,20,0.19,0,0.15,0.23,0.13,0.05,0.12,31,0,27,43,39,51,61,20,0,30,27,56,41,79,0.35,0.05,0.3,0.4,0.16,0.06,0.12,0.33,0.02,0.25,0.4,0.12,0.07,0.07,3
47,2021,AK,Gold Creek,63,58.3107,-134.4174,WAT,HYDRO,9.7,,8670,0.28,0.03,0.23,0.33,0.17,0.04,0.04,48,70,42,53,57,45,26,48,79,51,45,75,35,31,0.35,0.05,0.3,0.4,0.16,0.06,0.12,0.33,0.02,0.25,0.4,0.12,0.07,0.07,3
48,2021,AK,Green Lake,313,56.986284,-135.12275,WAT,HYDRO,18.6,,6,0.03,0,0,0.06,0.18,0,0,0,0,0,16,59,0,0,0,0,0,1,77,0,0,0.35,0.05,0.3,0.4,0.16,0.06,0.12,0.33,0.02,0.25,0.4,0.12,0.07,0.07,3
49,2021,AK,Gustavus,65767,58.419497,-135.70737,DFO,OIL,1.4,,461,0.2,0,0.21,0.19,0.27,0,0.07,32,0,38,38,85,0,42,22,58,46,21,95,7,57,0.35,0.05,0.3,0.4,0.16,0.06,0.12,0.33,0.02,0.25,0.4,0.12,0.07,0.07,3
50,2021,AK,Gwitchyaa Zhee,7174,66.566287,-145.253052,DFO,OIL,2.8,,403,0.65,0.07,0.48,0.82,0.17,0.06,0.14,86,80,77,85,57,56,67,93,89,90,91,75,46,85,0.35,0.05,0.3,0.4,0.16,0.06,0.12,0.33,0.02,0.25,0.4,0.12,0.07,0.07,3
51,2021,AK,Haines,69,59.235931,-135.446228,DFO,OIL,9.6,,1905,0.24,0,0.19,0.29,0.15,0.07,0.03,41,0,35,50,50,70,22,37,59,42,39,70,64,26,0.35,0.05,0.3,0.4,0.16,0.06,0.12,0.33,0.02,0.25,0.4,0.12,0.07,0.07,3
52,2021,AK,Hank Nikkels Plant 1,75,61.2221,-149.8661,NG,GAS,77.9,,63526,0.45,0.06,0.34,0.56,0.12,0.08,0.09,70,78,61,70,35,72,54,77,86,74,75,49,66,71,0.35,0.05,0.3,0.4,0.16,0.06,0.12,0.33,0.02,0.25,0.4,0.12,0.07,0.07,3
53,2021,AK,Healy Power Plant,6288,63.8542,-148.95,LIG,COAL,92.8,Yes,852,0.26,0,0.32,0.19,0.1,0.01,0.02,44,0,58,38,27,15,18,42,0,70,20,38,9,21,0.35,0.05,0.3,0.4,0.16,0.06,0.12,0.33,0.02,0.25,0.4,0.12,0.07,0.07,3
54,2021,AK,Hiilangaay Hydro,59037,55.216389,-132.603611,WAT,HYDRO,5,,0,N/A,N/A,N/A,N/A,N/A,N/A,N/A,N/A,N/A,N/A,N/A,N/A,N/A,N/A,N/A,N/A,N/A,N/A,N/A,N/A,N/A,0.35,0.05,0.3,0.4,0.16,0.06,0.12,0.33,0.02,0.25,0.4,0.12,0.07,0.07,3
55,2021,AK,Hoonah,7463,58.106432,-135.43074,DFO,OIL,2,,803,0.54,0.02,0.35,0.72,0.22,0.04,0.05,77,62,61,79,74,42,36,85,70,76,85,88,31,46,0.35,0.05,0.3,0.4,0.16,0.06,0.12,0.33,0.02,0.25,0.4,0.12,0.07,0.07,3
56,2021,AK,Hooper Bay,6319,61.530858,-166.101944,DFO,OIL,2.2,,987,0.83,0.02,0.74,0.92,0.06,0.14,0.17,96,62,95,90,11,94,74,98,71,98,96,13,94,90,0.35,0.05,0.3,0.4,0.16,0.06,0.12,0.33,0.02,0.25,0.4,0.12,0.07,0.07,3
57,2021,AK,Humpback Creek,7042,60.612822,-145.679411,WAT,HYDRO,1.2,,396,0.21,0,0.14,0.28,0.17,0.08,0.01,34,0,25,48,57,75,12,25,0,25,37,76,70,14,0.35,0.05,0.3,0.4,0.16,0.06,0.12,0.33,0.02,0.25,0.4,0.12,0.07,0.07,3
58,2021,AK,Hydaburg,423,55.204937,-132.821435,DFO,OIL,1,,521,0.54,0,0.42,0.65,0.23,0.07,0.05,77,0,71,76,77,64,32,85,0,84,80,90,56,40,0.35,0.05,0.3,0.4,0.16,0.06,0.12,0.33,0.02,0.25,0.4,0.12,0.07,0.07,3
59,2021,AK,Industrial Plant,59793,58.367635,-134.60802,DFO,OIL,41.7,,15580,0.23,0.03,0.11,0.35,0.13,0.06,0.04,39,69,19,55,38,62,31,31,79,17,48,54,53,37,0.35,0.05,0.3,0.4,0.16,0.06,0.12,0.33,0.02,0.25,0.4,0.12,0.07,0.07,3
60,2021,AK,International,6293,61.168972,-149.911038,NG,GAS,15,,94280,0.34,0.05,0.22,0.47,0.11,0.06,0.07,57,74,40,64,32,57,42,61,83,48,64,46,48,56,0.35,0.05,0.3,0.4,0.16,0.06,0.12,0.33,0.02,0.25,0.4,0.12,0.07,0.07,3
61,2021,AK,Jarvis Street,6801,57.0497,-135.3128,DFO,OIL,25.6,,7152,0.3,0.02,0.19,0.41,0.15,0.05,0.05,52,62,35,60,50,52,36,52,69,42,57,70,42,45,0.35,0.05,0.3,0.4,0.16,0.06,0.12,0.33,0.02,0.25,0.4,0.12,0.07,0.07,3
62,2021,AK,JBER Landfill Gas Power Plant,58380,61.286,-149.61,LFG,BIOMASS,11.5,,8198,0.19,0,0.15,0.23,0.08,0.08,0.03,30,0,26,43,21,77,23,19,58,28,28,27,73,27,0.35,0.05,0.3,0.4,0.16,0.06,0.12,0.33,0.02,0.25,0.4,0.12,0.07,0.07,3
63,2021,AK,Kake,7464,56.962983,-133.922557,DFO,OIL,3.1,,545,0.43,0,0.42,0.43,0.19,0.08,0.12,67,0,71,62,63,77,61,75,0,84,59,83,73,79,0.35,0.05,0.3,0.4,0.16,0.06,0.12,0.33,0.02,0.25,0.4,0.12,0.07,0.07,3
64,2021,AK,Kasidaya Creek Hydro,56542,59.4072,-135.3408,WAT,HYDRO,3,,0,N/A,N/A,N/A,N/A,N/A,N/A,N/A,N/A,N/A,N/A,N/A,N/A,N/A,N/A,N/A,N/A,N/A,N/A,N/A,N/A,N/A,0.35,0.05,0.3,0.4,0.16,0.06,0.12,0.33,0.02,0.25,0.4,0.12,0.07,0.07,3
65,2021,AK,Kasigluk,57066,60.8731,-162.5197,DFO,OIL,2,,1147,0.92,0.09,0.84,1,0.07,0.13,0.29,99,83,98,97,15,93,90,99,92,99,99,20,92,98,0.35,0.05,0.3,0.4,0.16,0.06,0.12,0.33,0.02,0.25,0.4,0.12,0.07,0.07,3
66,2021,AK,Ketchikan,84,55.344641,-131.633425,WAT,HYDRO,4.2,,9056,0.36,0.04,0.28,0.44,0.14,0.05,0.07,60,73,51,63,42,53,46,63,82,63,61,60,43,61,0.35,0.05,0.3,0.4,0.16,0.06,0.12,0.33,0.02,0.25,0.4,0.12,0.07,0.07,3
67,2021,AK,Kiana,6323,66.973889,-160.428592,DFO,OIL,1.2,,357,0.72,0.02,0.5,0.93,0.08,0.13,0.21,91,62,80,91,17,92,82,94,69,91,97,23,90,94,0.35,0.05,0.3,0.4,0.16,0.06,0.12,0.33,0.02,0.25,0.4,0.12,0.07,0.07,3
68,2021,AK,King Cove,7493,55.061683,-162.3103,WAT,HYDRO,2.6,,1175,0.61,0.07,0.31,0.91,0.11,0.04,0.16,83,79,56,89,33,40,73,91,88,68,95,47,28,89,0.35,0.05,0.3,0.4,0.16,0.06,0.12,0.33,0.02,0.25,0.4,0.12,0.07,0.07,3
69,2021,AK,Kivalina,57065,67.726644,-164.538447,DFO,OIL,1.1,,479,0.73,0.03,0.54,0.92,0.1,0.1,0.19,91,68,83,90,25,83,79,95,78,93,96,34,78,93,0.35,0.05,0.3,0.4,0.16,0.06,0.12,0.33,0.02,0.25,0.4,0.12,0.07,0.07,3
70,2021,AK,Klawock Power Generation Station,61684,55.553197,-133.08535,DFO,OIL,2.5,,921,0.44,0,0.35,0.53,0.15,0.05,0.1,69,0,61,69,50,47,56,77,0,75,70,69,36,74,0.35,0.05,0.3,0.4,0.16,0.06,0.12,0.33,0.02,0.25,0.4,0.12,0.07,0.07,3
71,2021,AK,Kodiak Microgrid,6281,57.789956,-152.396982,DFO,OIL,18.3,,9763,0.39,0.09,0.2,0.58,0.12,0.06,0.11,63,83,36,72,34,58,59,69,91,43,76,48,49,77,0.35,0.05,0.3,0.4,0.16,0.06,0.12,0.33,0.02,0.25,0.4,0.12,0.07,0.07,3
72,2021,AK,Kotlik,57064,63.03215,-163.553106,DFO,OIL,1.4,,930,0.86,0.01,0.72,1,0.07,0.15,0.23,97,59,94,97,15,96,84,99,64,98,99,20,96,96,0.35,0.05,0.3,0.4,0.16,0.06,0.12,0.33,0.02,0.25,0.4,0.12,0.07,0.07,3
73,2021,AK,Kotzebue Hybrid,6304,66.837778,-162.556944,DFO,OIL,17.1,,0,N/A,N/A,N/A,N/A,N/A,N/A,N/A,N/A,N/A,N/A,N/A,N/A,N/A,N/A,N/A,N/A,N/A,N/A,N/A,N/A,N/A,0.35,0.05,0.3,0.4,0.16,0.06,0.12,0.33,0.02,0.25,0.4,0.12,0.07,0.07,3
74,2021,AK,Koyuk,57059,64.932089,-161.167103,DFO,OIL,1.1,,300,0.8,0.01,0.65,0.95,0.08,0.1,0.2,95,58,91,92,19,86,80,96,64,96,97,25,82,93,0.35,0.05,0.3,0.4,0.16,0.06,0.12,0.33,0.02,0.25,0.4,0.12,0.07,0.07,3
75,2021,AK,Lake Dorothy Hydroelectric Project,57085,58.2325,-134.0533,WAT,HYDRO,14.3,,N/A,N/A,N/A,N/A,N/A,N/A,N/A,N/A,N/A,N/A,N/A,N/A,N/A,N/A,N/A,N/A,N/A,N/A,N/A,N/A,N/A,N/A,N/A,N/A,N/A,N/A,N/A,N/A,N/A,N/A,N/A,N/A,N/A,N/A,N/A,N/A,N/A
76,2021,AK,Lemon Creek,64,58.3536,-134.4953,DFO,OIL,61.7,,6140,0.4,0.05,0.24,0.56,0.1,0.07,0.04,65,76,44,70,27,69,27,72,84,53,75,37,62,32,0.35,0.05,0.3,0.4,0.16,0.06,0.12,0.33,0.02,0.25,0.4,0.12,0.07,0.07,3
77,2021,AK,Marshall,60244,61.878186,-162.085147,DFO,OIL,1.1,,193,0.95,0,0.9,1,0.06,0.12,0.3,99,0,99,97,11,91,91,99,0,99,99,13,88,99,0.35,0.05,0.3,0.4,0.16,0.06,0.12,0.33,0.02,0.25,0.4,0.12,0.07,0.07,3
78,2021,AK,McGrath,6555,62.95699,-155.594997,DFO,OIL,3.8,,196,0.7,0,0.52,0.87,0.14,0.08,0.13,89,0,81,87,42,76,67,94,0,92,93,59,72,85,0.35,0.05,0.3,0.4,0.16,0.06,0.12,0.33,0.02,0.25,0.4,0.12,0.07,0.07,3
79,2021,AK,Mountain Village,6329,62.085569,-163.729072,DFO,OIL,2.3,,718,0.78,0.03,0.6,0.96,0.05,0.09,0.22,94,67,88,93,8,81,84,96,75,95,98,8,76,95,0.35,0.05,0.3,0.4,0.16,0.06,0.12,0.33,0.02,0.25,0.4,0.12,0.07,0.07,3
80,2021,AK,Naknek,6301,58.730417,-157.007222,DFO,OIL,16.5,,151,0.34,0,0.15,0.52,0.12,0.07,0.06,56,0,27,68,34,66,41,59,0,29,69,49,58,54,0.35,0.05,0.3,0.4,0.16,0.06,0.12,0.33,0.02,0.25,0.4,0.12,0.07,0.07,3
81,2021,AK,New Stuyahok,60245,59.448358,-157.325528,DFO,OIL,1.4,,253,0.78,0.06,0.66,0.91,0.13,0.1,0.16,94,77,91,89,38,86,74,96,85,96,94,54,82,89,0.35,0.05,0.3,0.4,0.16,0.06,0.12,0.33,0.02,0.25,0.4,0.12,0.07,0.07,3
82,2021,AK,Newhalen,7183,59.899054,-154.698735,WAT,HYDRO,1.7,,N/A,N/A,N/A,N/A,N/A,N/A,N/A,N/A,N/A,N/A,N/A,N/A,N/A,N/A,N/A,N/A,N/A,N/A,N/A,N/A,N/A,N/A,N/A,N/A,N/A,N/A,N/A,N/A,N/A,N/A,N/A,N/A,N/A,N/A,N/A,N/A,N/A
83,2021,AK,Nikiski Combined Cycle,55966,60.676539,-151.377713,NG,GAS,80.8,,1863,0.22,0,0.26,0.18,0.17,0.05,0.06,36,0,48,36,56,49,39,28,0,57,16,74,38,52,0.35,0.05,0.3,0.4,0.16,0.06,0.12,0.33,0.02,0.25,0.4,0.12,0.07,0.07,3
84,2021,AK,Noatak,57051,67.570931,-162.965728,DFO,OIL,1.3,,299,0.73,0.03,0.54,0.92,0.1,0.1,0.19,91,68,83,90,25,83,79,95,78,93,96,34,78,93,0.35,0.05,0.3,0.4,0.16,0.06,0.12,0.33,0.02,0.25,0.4,0.12,0.07,0.07,3
85,2021,AK,Noorvik,6330,66.834519,-161.038717,DFO,OIL,1.5,,552,0.72,0.02,0.5,0.93,0.08,0.13,0.21,91,62,80,91,17,92,82,94,69,91,97,23,90,94,0.35,0.05,0.3,0.4,0.16,0.06,0.12,0.33,0.02,0.25,0.4,0.12,0.07,0.07,3
86,2021,AK,North Pole,6285,64.7356,-147.3481,WO,OIL,181,,9691,0.21,0.01,0.15,0.27,0.09,0.05,0.07,34,57,27,47,24,54,46,25,59,29,34,32,44,62,0.35,0.05,0.3,0.4,0.16,0.06,0.12,0.33,0.02,0.25,0.4,0.12,0.07,0.07,3
87,2021,AK,Northway,7169,62.9617,-141.9372,DFO,OIL,1.1,,174,0.51,0.01,0.41,0.6,0.16,0.1,0.18,75,57,70,73,52,85,77,83,60,83,78,71,81,91,0.35,0.05,0.3,0.4,0.16,0.06,0.12,0.33,0.02,0.25,0.4,0.12,0.07,0.07,3
88,2021,AK,NSB Anaktuvuk Pass,7487,68.13795,-151.741017,DFO,OIL,2.7,,328,0.58,0.04,0.34,0.83,0.08,0.13,0.22,81,73,60,85,18,94,83,90,81,74,91,24,92,95,0.35,0.05,0.3,0.4,0.16,0.06,0.12,0.33,0.02,0.25,0.4,0.12,0.07,0.07,3
89,2021,AK,NSB Atqasuk Utility,7482,70.4826,-157.4252,DFO,OIL,3.2,,175,0.63,0.07,0.32,0.94,0.08,0.1,0.18,85,80,57,91,19,86,77,92,90,69,97,25,82,92,0.35,0.05,0.3,0.4,0.16,0.06,0.12,0.33,0.02,0.25,0.4,0.12,0.07,0.07,3
90,2021,AK,NSB Kaktovik Utility,7483,70.125617,-143.619033,DFO,OIL,2.6,,218,0.58,0.04,0.34,0.83,0.08,0.13,0.22,81,73,60,85,18,94,83,90,81,74,91,24,92,95,0.35,0.05,0.3,0.4,0.16,0.06,0.12,0.33,0.02,0.25,0.4,0.12,0.07,0.07,3
91,2021,AK,NSB Nuiqsut Utility,7484,70.220565,-150.993492,DFO,OIL,4.4,,395,0.58,0.04,0.34,0.83,0.08,0.13,0.22,81,73,60,85,18,94,83,90,81,74,91,24,92,95,0.35,0.05,0.3,0.4,0.16,0.06,0.12,0.33,0.02,0.25,0.4,0.12,0.07,0.07,3
92,2021,AK,NSB Point Hope Utility,7485,68.348424,-166.737211,DFO,OIL,3.1,,634,0.67,0.02,0.45,0.9,0.06,0.13,0.27,88,65,75,88,14,93,89,93,74,88,94,17,91,97,0.35,0.05,0.3,0.4,0.16,0.06,0.12,0.33,0.02,0.25,0.4,0.12,0.07,0.07,3
93,2021,AK,NSB Point Lay Utility,7486,69.740833,-163.005833,DFO,OIL,2.4,,175,0.67,0.02,0.45,0.9,0.06,0.13,0.27,88,65,75,88,14,93,89,93,74,88,94,17,91,97,0.35,0.05,0.3,0.4,0.16,0.06,0.12,0.33,0.02,0.25,0.4,0.12,0.07,0.07,3
94,2021,AK,NSB Wainwright Utility,7488,70.642877,-160.020461,DFO,OIL,3,,397,0.63,0.07,0.32,0.94,0.08,0.1,0.18,85,80,57,91,19,86,77,92,90,69,97,25,82,92,0.35,0.05,0.3,0.4,0.16,0.06,0.12,0.33,0.02,0.25,0.4,0.12,0.07,0.07,3
95,2021,AK,Nunapitchuk,6333,60.89588,-162.459756,DFO,OIL,0.5,,731,0.92,0.09,0.84,1,0.07,0.13,0.29,99,83,98,97,15,93,90,99,92,99,99,20,92,98,0.35,0.05,0.3,0.4,0.16,0.06,0.12,0.33,0.02,0.25,0.4,0.12,0.07,0.07,3
96,2021,AK,Nymans Plant Microgrid,7723,57.731608,-152.507044,DFO,OIL,10,,1789,0.21,0,0.17,0.24,0.01,0.14,0.02,34,0,31,44,0,95,20,24,0,34,29,1,95,23,0.35,0.05,0.3,0.4,0.16,0.06,0.12,0.33,0.02,0.25,0.4,0.12,0.07,0.07,3
97,2021,AK,Orca,789,60.555889,-145.752983,DFO,OIL,10.7,,1576,0.25,0,0.1,0.39,0.13,0.04,0.06,42,0,18,58,41,40,41,38,0,16,53,58,28,54,0.35,0.05,0.3,0.4,0.16,0.06,0.12,0.33,0.02,0.25,0.4,0.12,0.07,0.07,3
98,2021,AK,Pelican,6702,57.957197,-136.220095,WAT,HYDRO,2.4,,74,0.2,0,0.21,0.19,0.27,0,0.07,32,0,38,38,85,0,42,22,58,46,21,95,7,57,0.35,0.05,0.3,0.4,0.16,0.06,0.12,0.33,0.02,0.25,0.4,0.12,0.07,0.07,3
99,2021,AK,Petersburg,91,56.81104,-132.957091,WAT,HYDRO,14.5,,2878,0.3,0.05,0.2,0.4,0.25,0.06,0.1,51,75,36,59,81,58,55,51,83,42,55,92,49,74,0.35,0.05,0.3,0.4,0.16,0.06,0.12,0.33,0.02,0.25,0.4,0.12,0.07,0.07,3
100,2021,AK,Pillar Mountain Wind Project Microgrid,57187,57.7869,-152.4406,WND,WIND,9,,6867,0.4,0.11,0.2,0.6,0.13,0.07,0.1,65,86,37,73,40,64,57,72,95,45,78,57,55,76,0.35,0.05,0.3,0.4,0.16,0.06,0.12,0.33,0.02,0.25,0.4,0.12,0.07,0.07,3
101,2021,AK,Pilot Station,57058,61.936456,-162.880706,DFO,OIL,1.3,,711,0.78,0.03,0.6,0.96,0.05,0.09,0.22,94,67,88,93,8,81,84,96,75,95,98,8,76,95,0.35,0.05,0.3,0.4,0.16,0.06,0.12,0.33,0.02,0.25,0.4,0.12,0.07,0.07,3
102,2021,AK,Port Lions Microgrid,6282,57.864775,-152.855441,DFO,OIL,0.5,,181,0.5,0.02,0.33,0.67,0.22,0.02,0.18,74,65,59,76,73,20,76,82,74,73,81,87,12,90,0.35,0.05,0.3,0.4,0.16,0.06,0.12,0.33,0.02,0.25,0.4,0.12,0.07,0.07,3
103,2021,AK,Power Creek,7862,60.588686,-145.604539,WAT,HYDRO,6,,396,0.21,0,0.14,0.28,0.17,0.08,0.01,34,0,25,48,57,75,12,25,0,25,37,76,70,14,0.35,0.05,0.3,0.4,0.16,0.06,0.12,0.33,0.02,0.25,0.4,0.12,0.07,0.07,3
104,2021,AK,Purple Lake,6302,55.091263,-131.544978,WAT,HYDRO,3.9,,1554,0.65,0,0.4,0.91,0.13,0.04,0.08,86,0,69,89,39,39,50,93,0,83,94,55,27,66,0.35,0.05,0.3,0.4,0.16,0.06,0.12,0.33,0.02,0.25,0.4,0.12,0.07,0.07,3
105,2021,AK,Quinhagak,57057,59.747436,-161.910647,DFO,OIL,1.2,,941,0.84,0.06,0.7,0.99,0.09,0.11,0.29,97,78,94,95,22,89,90,98,86,97,99,30,85,98,0.35,0.05,0.3,0.4,0.16,0.06,0.12,0.33,0.02,0.25,0.4,0.12,0.07,0.07,3
106,2021,AK,S W Bailey,85,55.357397,-131.69696,DFO,OIL,25.9,,7939,0.37,0.05,0.29,0.45,0.14,0.05,0.08,61,74,53,63,44,52,48,67,83,65,61,63,42,63,0.35,0.05,0.3,0.4,0.16,0.06,0.12,0.33,0.02,0.25,0.4,0.12,0.07,0.07,3
107,2021,AK,Salmon Creek 1,65,58.3269,-134.4631,WAT,HYDRO,8.5,,7766,0.31,0.05,0.21,0.41,0.15,0.05,0.03,53,74,39,60,49,47,26,55,83,47,58,68,36,30,0.35,0.05,0.3,0.4,0.16,0.06,0.12,0.33,0.02,0.25,0.4,0.12,0.07,0.07,3
108,2021,AK,Sand Point,1,55.339722,-160.497222,DFO,OIL,4,,1184,0.55,0.01,0.26,0.85,0.14,0.03,0.11,79,60,48,86,44,25,59,87,66,57,92,63,15,77,0.35,0.05,0.3,0.4,0.16,0.06,0.12,0.33,0.02,0.25,0.4,0.12,0.07,0.07,3
109,2021,AK,Savoonga,57052,63.695267,-170.475661,DFO,OIL,1.7,,802,0.8,0.01,0.65,0.95,0.08,0.1,0.2,95,58,91,92,19,86,80,96,64,96,97,25,82,93,0.35,0.05,0.3,0.4,0.16,0.06,0.12,0.33,0.02,0.25,0.4,0.12,0.07,0.07,3
110,2021,AK,Scammon Bay,57056,61.843036,-165.581497,DFO,OIL,1.3,,431,0.83,0.02,0.74,0.92,0.06,0.14,0.17,96,62,95,90,11,94,74,98,71,98,96,13,94,90,0.35,0.05,0.3,0.4,0.16,0.06,0.12,0.33,0.02,0.25,0.4,0.12,0.07,0.07,3
111,2021,AK,Selawik,6341,66.606778,-160.014808,DFO,OIL,2.2,,726,0.9,0.04,0.81,0.98,0.06,0.16,0.32,98,71,97,95,12,96,92,99,80,99,98,14,97,99,0.35,0.05,0.3,0.4,0.16,0.06,0.12,0.33,0.02,0.25,0.4,0.12,0.07,0.07,3
112,2021,AK,Seldovia,6283,59.439542,-151.713439,DFO,OIL,2.2,,344,0.41,0.01,0.24,0.57,0.2,0.03,0.07,65,57,44,71,69,29,43,73,60,52,76,85,19,57,0.35,0.05,0.3,0.4,0.16,0.06,0.12,0.33,0.02,0.25,0.4,0.12,0.07,0.07,3
113,2021,AK,Seward (AK),92,60.130922,-149.43501,DFO,OIL,15.6,,3046,0.27,0,0.25,0.29,0.13,0.05,0.06,46,0,46,50,41,50,39,46,0,55,39,57,38,51,0.35,0.05,0.3,0.4,0.16,0.06,0.12,0.33,0.02,0.25,0.4,0.12,0.07,0.07,3
114,2021,AK,Shishmaref,6345,66.255072,-166.073589,DFO,OIL,1.5,,554,0.8,0.01,0.65,0.95,0.08,0.1,0.2,95,58,91,92,19,86,80,96,64,96,97,25,82,93,0.35,0.05,0.3,0.4,0.16,0.06,0.12,0.33,0.02,0.25,0.4,0.12,0.07,0.07,3
115,2021,AK,Shungnak,57063,66.888114,-157.140206,DFO,OIL,1.2,,230,0.8,0.07,0.68,0.92,0.11,0.11,0.21,95,79,93,90,32,87,82,97,87,97,95,44,83,94,0.35,0.05,0.3,0.4,0.16,0.06,0.12,0.33,0.02,0.25,0.4,0.12,0.07,0.07,3
116,2021,AK,Silvis,6581,55.381402,-131.517758,WAT,HYDRO,2.1,,4,0.06,0,0.06,0.07,0.13,0.08,0,4,0,9,19,39,73,0,1,0,8,2,55,68,0,0.35,0.05,0.3,0.4,0.16,0.06,0.12,0.33,0.02,0.25,0.4,0.12,0.07,0.07,3
117,2021,AK,Skagway,66,59.4545,-135.3131,WAT,HYDRO,4.4,,1235,0.19,0,0.15,0.23,0.13,0.05,0.12,31,0,27,43,39,51,61,20,0,30,27,56,41,79,0.35,0.05,0.3,0.4,0.16,0.06,0.12,0.33,0.02,0.25,0.4,0.12,0.07,0.07,3
118,2021,AK,Slana Generating Station,61685,62.592756,-143.588869,DFO,OIL,1.6,,10,0.4,0.01,0.34,0.46,0.12,0.07,0.04,64,57,60,63,36,70,30,71,59,74,62,51,65,35,0.35,0.05,0.3,0.4,0.16,0.06,0.12,0.33,0.02,0.25,0.4,0.12,0.07,0.07,3
119,2021,AK,Snake River,90,64.505331,-165.429814,DFO,OIL,19.2,,3843,0.46,0.01,0.19,0.74,0.08,0.09,0.08,71,60,34,80,17,81,47,78,66,40,86,22,76,62,0.35,0.05,0.3,0.4,0.16,0.06,0.12,0.33,0.02,0.25,0.4,0.12,0.07,0.07,3
120,2021,AK,Snettisham,78,58.1415,-133.737,WAT,HYDRO,78.2,,0,N/A,N/A,N/A,N/A,N/A,N/A,N/A,N/A,N/A,N/A,N/A,N/A,N/A,N/A,N/A,N/A,N/A,N/A,N/A,N/A,N/A,0.35,0.05,0.3,0.4,0.16,0.06,0.12,0.33,0.02,0.25,0.4,0.12,0.07,0.07,3
121,2021,AK,Soldotna,57206,60.499444,-150.997222,NG,GAS,50,,5031,0.2,0,0.27,0.14,0.17,0.04,0.07,33,0,49,30,58,40,44,24,0,61,9,76,28,59,0.35,0.05,0.3,0.4,0.16,0.06,0.12,0.33,0.02,0.25,0.4,0.12,0.07,0.07,3
122,2021,AK,Solomon Gulch,390,61.0828,-146.3033,WAT,HYDRO,12,,60,0.25,0,0.34,0.17,0.03,0.06,0,43,0,61,34,6,62,0,41,0,74,15,5,53,0,0.35,0.05,0.3,0.4,0.16,0.06,0.12,0.33,0.02,0.25,0.4,0.12,0.07,0.07,3
123,2021,AK,South Fork,56265,55.563333,-132.891111,WAT,HYDRO,2,,42,0.44,0,0.35,0.53,0.15,0.05,0.1,69,0,61,69,50,47,56,77,0,75,70,69,36,74,0.35,0.05,0.3,0.4,0.16,0.06,0.12,0.33,0.02,0.25,0.4,0.12,0.07,0.07,3
124,2021,AK,Southcentral Power Project,57036,61.167417,-149.905304,NG,GAS,203.9,,99053,0.35,0.05,0.22,0.48,0.11,0.06,0.07,58,74,40,65,32,58,42,62,83,48,65,45,49,56,0.35,0.05,0.3,0.4,0.16,0.06,0.12,0.33,0.02,0.25,0.4,0.12,0.07,0.07,3
125,2021,AK,St Marys IC,6338,62.051525,-163.172567,DFO,OIL,6.5,,690,0.78,0.03,0.6,0.96,0.05,0.09,0.22,94,67,88,93,8,81,84,96,75,95,98,8,76,95,0.35,0.05,0.3,0.4,0.16,0.06,0.12,0.33,0.02,0.25,0.4,0.12,0.07,0.07,3
126,2021,AK,St. Michael,57061,63.4775,-162.0383,DFO,OIL,0.7,,379,0.8,0.01,0.65,0.95,0.08,0.1,0.2,95,58,91,92,19,86,80,96,64,96,97,25,82,93,0.35,0.05,0.3,0.4,0.16,0.06,0.12,0.33,0.02,0.25,0.4,0.12,0.07,0.07,3
127,2021,AK,Stebbins,57055,63.521047,-162.286322,DFO,OIL,2,,376,0.8,0.01,0.65,0.95,0.08,0.1,0.2,95,58,91,92,19,86,80,96,64,96,97,25,82,93,0.35,0.05,0.3,0.4,0.16,0.06,0.12,0.33,0.02,0.25,0.4,0.12,0.07,0.07,3
128,2021,AK,Swampy Acres Microgrid,60250,57.77556,-152.48028,DFO,OIL,8.4,,2324,0.25,0.03,0.17,0.33,0.06,0.12,0.04,42,66,31,53,12,92,31,39,75,34,45,14,89,37,0.35,0.05,0.3,0.4,0.16,0.06,0.12,0.33,0.02,0.25,0.4,0.12,0.07,0.07,3
129,2021,AK,Swan Lake,70,55.615208,-131.356111,WAT,HYDRO,22.6,,16,0.06,0,0.06,0.07,0.13,0.08,0,4,0,9,19,39,73,0,1,0,8,2,55,68,0,0.35,0.05,0.3,0.4,0.16,0.06,0.12,0.33,0.02,0.25,0.4,0.12,0.07,0.07,3
130,2021,AK,Terror Lake Microgrid,71,57.6861,-152.895,WAT,HYDRO,33.6,,N/A,N/A,N/A,N/A,N/A,N/A,N/A,N/A,N/A,N/A,N/A,N/A,N/A,N/A,N/A,N/A,N/A,N/A,N/A,N/A,N/A,N/A,N/A,N/A,N/A,N/A,N/A,N/A,N/A,N/A,N/A,N/A,N/A,N/A,N/A,N/A,N/A
131,2021,AK,Tesoro Kenai Cogeneration Plant,52184,60.677,-151.3815,NG,GAS,8.6,,1829,0.22,0,0.26,0.17,0.17,0.05,0.06,36,0,47,35,56,49,39,27,0,57,16,74,37,52,0.35,0.05,0.3,0.4,0.16,0.06,0.12,0.33,0.02,0.25,0.4,0.12,0.07,0.07,3
132,2021,AK,Thorne Bay Plant,7414,55.68586,-132.52892,DFO,OIL,1,,311,0.25,0,0.33,0.17,0.25,0.02,0.09,43,0,58,35,81,21,52,39,0,71,16,92,13,69,0.35,0.05,0.3,0.4,0.16,0.06,0.12,0.33,0.02,0.25,0.4,0.12,0.07,0.07,3
133,2021,AK,TNSG North Plant,58278,70.235278,-148.383611,NG,GAS,25.7,,608,0.16,0,0.09,0.23,0.05,0,0.03,23,0,15,42,10,0,20,11,0,14,25,11,0,24,0.35,0.05,0.3,0.4,0.16,0.06,0.12,0.33,0.02,0.25,0.4,0.12,0.07,0.07,3
134,2021,AK,TNSG South Plant,58117,70.2,-148.466667,NG,GAS,7.8,,437,0.16,0,0.09,0.23,0.05,0,0.03,23,0,15,42,10,0,20,11,0,14,25,11,0,24,0.35,0.05,0.3,0.4,0.16,0.06,0.12,0.33,0.02,0.25,0.4,0.12,0.07,0.07,3
135,2021,AK,Togiak,6348,59.059744,-160.380278,DFO,OIL,2.8,,282,0.78,0.06,0.66,0.91,0.13,0.1,0.16,94,77,91,89,38,86,74,96,85,96,94,54,82,89,0.35,0.05,0.3,0.4,0.16,0.06,0.12,0.33,0.02,0.25,0.4,0.12,0.07,0.07,3
136,2021,AK,Tok,406,63.33552,-142.99997,DFO,OIL,5.3,,854,0.29,0.01,0.33,0.24,0.18,0.06,0.09,49,57,58,44,61,55,52,49,62,72,29,80,46,68,0.35,0.05,0.3,0.4,0.16,0.06,0.12,0.33,0.02,0.25,0.4,0.12,0.07,0.07,3
137,2021,AK,Toksook Bay,57067,60.530142,-165.108575,DFO,OIL,2.1,,639,0.84,0.05,0.68,0.99,0.09,0.14,0.2,97,74,93,96,21,95,80,98,82,97,99,27,94,94,0.35,0.05,0.3,0.4,0.16,0.06,0.12,0.33,0.02,0.25,0.4,0.12,0.07,0.07,3
138,2021,AK,Tyee Lake Hydroelectric Facility,61166,56.216403,-131.504344,WAT,HYDRO,22.6,,N/A,N/A,N/A,N/A,N/A,N/A,N/A,N/A,N/A,N/A,N/A,N/A,N/A,N/A,N/A,N/A,N/A,N/A,N/A,N/A,N/A,N/A,N/A,N/A,N/A,N/A,N/A,N/A,N/A,N/A,N/A,N/A,N/A,N/A,N/A,N/A,N/A
139,2021,AK,Unalakleet,6299,63.876789,-160.790414,DFO,OIL,2,,766,0.8,0.01,0.65,0.95,0.08,0.1,0.2,95,58,91,92,19,86,80,96,64,96,97,25,82,93,0.35,0.05,0.3,0.4,0.16,0.06,0.12,0.33,0.02,0.25,0.4,0.12,0.07,0.07,3
140,2021,AK,Unalaska Power Module,7503,53.863993,-166.512591,DFO,OIL,1.1,,2912,0.5,0.07,0.21,0.8,0.08,0.04,0.1,75,80,38,83,18,37,56,83,89,46,90,23,25,74,0.35,0.05,0.3,0.4,0.16,0.06,0.12,0.33,0.02,0.25,0.4,0.12,0.07,0.07,3
141,2021,AK,Unisea G 2,54422,53.8796,-166.5532,DFO,OIL,17.5,,2912,0.5,0.07,0.21,0.8,0.08,0.04,0.1,75,80,38,83,18,37,56,83,89,46,90,23,25,74,0.35,0.05,0.3,0.4,0.16,0.06,0.12,0.33,0.02,0.25,0.4,0.12,0.07,0.07,3
142,2021,AK,University of Alaska Fairbanks,50711,64.854171,-147.822075,SUB,COAL,39.6,Yes,24584,0.31,0.04,0.23,0.38,0.14,0.07,0.06,53,71,42,58,44,70,37,54,81,51,52,63,64,48,0.35,0.05,0.3,0.4,0.16,0.06,0.12,0.33,0.02,0.25,0.4,0.12,0.07,0.07,3
143,2021,AK,Upper Kalskag,57054,61.526858,-160.348128,DFO,OIL,1.1,,473,0.72,0.01,0.55,0.88,0.08,0.11,0.19,91,57,84,88,20,90,78,94,59,94,93,26,87,92,0.35,0.05,0.3,0.4,0.16,0.06,0.12,0.33,0.02,0.25,0.4,0.12,0.07,0.07,3
144,2021,AK,Utility Plants Section,50308,64.825601,-147.648627,SUB,COAL,20,Yes,22444,0.36,0.02,0.33,0.4,0.08,0.11,0.07,60,65,58,59,19,89,44,65,74,72,55,26,86,59,0.35,0.05,0.3,0.4,0.16,0.06,0.12,0.33,0.02,0.25,0.4,0.12,0.07,0.07,3
145,2021,AK,Valdez,6306,61.1303,-146.3647,DFO,OIL,8.6,,2198,0.18,0,0.14,0.22,0.21,0.07,0.06,29,0,26,42,69,71,38,18,0,28,25,85,65,50,0.35,0.05,0.3,0.4,0.16,0.06,0.12,0.33,0.02,0.25,0.4,0.12,0.07,0.07,3
146,2021,AK,Valdez Cogen,7841,61.0839,-146.2529,WO,OIL,5.3,,1048,0.17,0,0.24,0.1,0.03,0.06,0,27,0,45,25,5,58,0,16,0,54,4,5,49,0,0.35,0.05,0.3,0.4,0.16,0.06,0.12,0.33,0.02,0.25,0.4,0.12,0.07,0.07,3
147,2021,AK,Viking,56147,55.540708,-133.102344,DFO,OIL,1,,1007,0.43,0,0.34,0.52,0.16,0.05,0.1,68,0,60,68,50,49,55,76,0,74,69,70,37,74,0.35,0.05,0.3,0.4,0.16,0.06,0.12,0.33,0.02,0.25,0.4,0.12,0.07,0.07,3
148,2021,AK,Westward Seafoods,54305,53.858508,-166.55288,DFO,OIL,6.6,,2237,0.49,0.07,0.2,0.79,0.07,0.04,0.09,74,79,36,83,16,36,54,82,88,44,89,21,25,71,0.35,0.05,0.3,0.4,0.16,0.06,0.12,0.33,0.02,0.25,0.4,0.12,0.07,0.07,3
149,2021,AK,Whitman,58977,55.328056,-131.530833,WAT,HYDRO,4.8,,2262,0.23,0,0.16,0.3,0.16,0.04,0.04,38,0,28,50,53,42,27,31,58,32,40,72,31,32,0.35,0.05,0.3,0.4,0.16,0.06,0.12,0.33,0.02,0.25,0.4,0.12,0.07,0.07,3
150,2021,AK,Wrangell,95,56.460976,-132.379439,DFO,OIL,8.5,,1837,0.38,0,0.37,0.38,0.2,0.06,0.14,62,0,65,58,69,63,68,68,0,79,52,85,53,87,0.35,0.05,0.3,0.4,0.16,0.06,0.12,0.33,0.02,0.25,0.4,0.12,0.07,0.07,3
151,2021,AK,Yakutat,6637,59.544553,-139.724306,DFO,OIL,3.8,,578,0.54,0.01,0.41,0.68,0.14,0.11,0.06,78,58,70,77,44,89,37,86,62,83,82,63,86,48,0.35,0.05,0.3,0.4,0.16,0.06,0.12,0.33,0.02,0.25,0.4,0.12,0.07,0.07,3
152,2021,AL,ABC Coke,56076,33.582793,-86.779866,COG,COAL,3.8,Yes,24613,0.66,0.02,0.55,0.78,0.16,0.06,0.17,87,63,84,82,54,63,75,84,84,76,84,48,64,66,0.35,0.05,0.3,0.4,0.16,0.06,0.12,0.38,0.01,0.36,0.35,0.17,0.06,0.13,3
153,2021,AL,Alabama Pine Pulp,54429,31.5825,-87.4889,BLQ,BIOMASS,69,,113,0.56,0,0.61,0.52,0.2,0,0.32,80,0,88,68,68,0,92,77,0,83,71,64,0,93,0.35,0.05,0.3,0.4,0.16,0.06,0.12,0.38,0.01,0.36,0.35,0.17,0.06,0.13,3
154,2021,AL,Alabama River Pulp,10216,31.5825,-87.4889,BLQ,BIOMASS,48,,113,0.56,0,0.61,0.52,0.2,0,0.32,80,0,88,68,68,0,92,77,0,83,71,64,0,93,0.35,0.05,0.3,0.4,0.16,0.06,0.12,0.38,0.01,0.36,0.35,0.17,0.06,0.13,3
155,2021,AL,Albertville,7924,34.363389,-86.223889,DFO,OIL,4,,2153,0.26,0.02,0.38,0.14,0.2,0.02,0.31,44,64,66,31,66,25,91,37,85,51,30,62,28,92,0.35,0.05,0.3,0.4,0.16,0.06,0.12,0.38,0.01,0.36,0.35,0.17,0.06,0.13,3
156,2021,AL,AMEA Sylacauga Plant,56018,33.1661,-86.2825,NG,GAS,98.6,,11105,0.39,0,0.46,0.32,0.18,0.06,0.18,63,0,76,53,61,58,76,60,0,65,55,56,58,68,0.35,0.05,0.3,0.4,0.16,0.06,0.12,0.38,0.01,0.36,0.35,0.17,0.06,0.13,3
157,2021,AL,ANAD Solar Array,60680,33.626728,-85.969481,SUN,SOLAR,7.4,,4047,0.32,0,0.46,0.19,0.14,0.09,0.14,55,0,75,38,46,80,68,50,0,64,38,38,79,56,0.35,0.05,0.3,0.4,0.16,0.06,0.12,0.38,0.01,0.36,0.35,0.17,0.06,0.13,3
158,2021,AL,Bankhead Dam,2,33.458665,-87.356823,WAT,HYDRO,53.9,,122,0.11,0,0.21,0.01,0.18,0.02,0.12,13,0,39,5,61,25,63,8,0,23,5,57,27,49,0.35,0.05,0.3,0.4,0.16,0.06,0.12,0.38,0.01,0.36,0.35,0.17,0.06,0.13,3
159,2021,AL,Barry,3,31.0069,-88.0103,BIT,COAL,2569.5,Yes,273,0.31,0,0.21,0.41,0.23,0.03,0.13,52,0,38,60,76,25,66,47,0,22,62,75,28,52,0.35,0.05,0.3,0.4,0.16,0.06,0.12,0.38,0.01,0.36,0.35,0.17,0.06,0.13,3
160,2021,AL,Bartletts Ferry,702,32.663,-85.0908,WAT,HYDRO,173,,2092,0.17,0,0.22,0.12,0.18,0.02,0.01,26,0,40,28,59,25,14,16,0,34,15,66,26,14,0.35,0.05,0.3,0.4,0.16,0.06,0.12,0.41,0.03,0.33,0.48,0.14,0.06,0.12,3
161,2021,AL,Bellefonte,6150,34.7092,-85.9278,DFO,OIL,14,,1532,0.3,0,0.48,0.12,0.22,0.04,0.14,51,0,78,27,74,42,68,45,0,68,26,72,43,56,0.35,0.05,0.3,0.4,0.16,0.06,0.12,0.38,0.01,0.36,0.35,0.17,0.06,0.13,3
162,2021,AL,Browns Ferry,46,34.7042,-87.1189,NUC,NUCLEAR,3567.5,,866,0.34,0.01,0.44,0.24,0.31,0.04,0.3,57,60,74,44,89,36,91,53,83,62,45,89,37,91,0.35,0.05,0.3,0.4,0.16,0.06,0.12,0.38,0.01,0.36,0.35,0.17,0.06,0.13,3
163,2021,AL,Calhoun Generating Facility,55409,33.5883,-85.9731,NG,GAS,748,,4794,0.35,0.02,0.49,0.22,0.15,0.09,0.15,59,61,78,42,49,80,70,55,83,69,43,42,80,58,0.35,0.05,0.3,0.4,0.16,0.06,0.12,0.38,0.01,0.36,0.35,0.17,0.06,0.13,3
164,2021,AL,Central Alabama Gen Station,55440,32.6497,-86.74,NG,GAS,927.1,,678,0.28,0,0.39,0.17,0.11,0.09,0.08,48,0,67,35,33,80,47,41,0,53,34,26,79,32,0.35,0.05,0.3,0.4,0.16,0.06,0.12,0.38,0.01,0.36,0.35,0.17,0.06,0.13,3
165,2021,AL,Colbert,47,34.7439,-87.8486,NG,GAS,476,,383,0.24,0,0.37,0.12,0.29,0.02,0.21,41,0,65,27,88,23,82,34,0,50,26,88,26,77,0.35,0.05,0.3,0.4,0.16,0.06,0.12,0.38,0.01,0.36,0.35,0.17,0.06,0.13,3
166,2021,AL,Crestwood Dothan,54985,31.262356,-85.402737,DFO,OIL,8.6,,22872,0.49,0.01,0.47,0.52,0.18,0.07,0.13,74,57,76,68,62,70,65,71,80,65,71,57,70,51,0.35,0.05,0.3,0.4,0.16,0.06,0.12,0.38,0.01,0.36,0.35,0.17,0.06,0.13,3
167,2021,AL,Cumblerland Land Holdings LLC,61924,34.94974,-86.868053,SUN,SOLAR,14.7,,4656,0.24,0,0.42,0.06,0.17,0.07,0.2,41,0,72,15,56,64,80,34,0,60,15,50,64,73,0.35,0.05,0.3,0.4,0.16,0.06,0.12,0.38,0.01,0.36,0.35,0.17,0.06,0.13,3
168,2021,AL,Decatur Energy Center,55292,34.6292,-87.0214,NG,GAS,902.4,,10385,0.59,0.05,0.54,0.64,0.15,0.06,0.3,82,76,84,75,47,61,91,79,92,76,76,40,61,91,0.35,0.05,0.3,0.4,0.16,0.06,0.12,0.38,0.01,0.36,0.35,0.17,0.06,0.13,3
169,2021,AL,Decatur-Morgan Co LFG Recovery Project,58061,34.623611,-87.101111,LFG,BIOMASS,1.6,,3081,0.28,0,0.3,0.25,0.11,0.04,0.13,48,0,54,45,31,41,67,41,0,39,47,24,42,53,0.35,0.05,0.3,0.4,0.16,0.06,0.12,0.38,0.01,0.36,0.35,0.17,0.06,0.13,3
170,2021,AL,E B Harris Generating Plant,7897,32.381352,-86.574366,NG,GAS,1304,,296,0.24,0,0.22,0.27,0.33,0.03,0.15,41,0,40,47,91,27,71,34,0,24,49,91,30,60,0.35,0.05,0.3,0.4,0.16,0.06,0.12,0.38,0.01,0.36,0.35,0.17,0.06,0.13,3
171,2021,AL,E C Gaston,26,33.244211,-86.458056,BIT,COAL,2034,Yes,2416,0.24,0.02,0.27,0.21,0.19,0.07,0.15,40,63,48,40,63,66,72,33,84,32,40,60,66,60,0.35,0.05,0.3,0.4,0.16,0.06,0.12,0.38,0.01,0.36,0.35,0.17,0.06,0.13,3
172,2021,AL,Fort Rucker Solar Array,60679,31.331148,-85.73019,SUN,SOLAR,10.6,,11271,0.4,0.03,0.41,0.38,0.07,0.11,0.1,64,70,70,58,14,87,58,60,88,58,60,9,86,43,0.35,0.05,0.3,0.4,0.16,0.06,0.12,0.38,0.01,0.36,0.35,0.17,0.06,0.13,3
173,2021,AL,Gadsden,7,34.0128,-85.9708,NG,GAS,138,,22334,0.53,0.01,0.51,0.56,0.16,0.07,0.19,77,60,81,70,51,66,79,74,83,72,72,44,66,72,0.35,0.05,0.3,0.4,0.16,0.06,0.12,0.38,0.01,0.36,0.35,0.17,0.06,0.13,3
174,2021,AL,Gantt,53,31.4033,-86.479469,WAT,HYDRO,3,,1533,0.27,0.01,0.38,0.15,0.28,0.04,0.1,45,57,66,32,86,37,58,38,81,52,31,86,38,43,0.35,0.05,0.3,0.4,0.16,0.06,0.12,0.38,0.01,0.36,0.35,0.17,0.06,0.13,3
175,2021,AL,Georgia-Pacific Brewton Mill,54789,31.077,-87.1116,BLQ,BIOMASS,103.4,,2346,0.52,0.01,0.58,0.46,0.13,0.06,0.25,76,0,86,64,38,58,87,73,80,80,66,30,57,85,0.35,0.05,0.3,0.4,0.16,0.06,0.12,0.38,0.01,0.36,0.35,0.17,0.06,0.13,3
176,2021,AL,Georgia-Pacific Consr Prods LP-Naheola,10699,32.2268,-88.0252,BLQ,BIOMASS,87.5,,504,0.59,0,0.55,0.64,0.2,0.08,0.3,82,0,84,75,67,73,91,79,0,77,77,64,73,91,0.35,0.05,0.3,0.4,0.16,0.06,0.12,0.38,0.01,0.36,0.35,0.17,0.06,0.13,3
177,2021,AL,Goat Rock,707,32.6096,-85.0795,WAT,HYDRO,38.6,,2044,0.23,0,0.26,0.2,0.23,0.04,0.04,38,0,47,39,75,41,31,25,0,40,24,80,41,27,0.35,0.05,0.3,0.4,0.16,0.06,0.12,0.41,0.03,0.33,0.48,0.14,0.06,0.12,3
178,2021,AL,Greene County,10,32.6017,-87.7811,NG,GAS,1288.4,,260,0.65,0,0.51,0.8,0.16,0.01,0.05,86,0,80,83,53,17,35,83,0,71,84,46,19,22,0.35,0.05,0.3,0.4,0.16,0.06,0.12,0.38,0.01,0.36,0.35,0.17,0.06,0.13,3
179,2021,AL,Guntersville,48,34.421272,-86.393931,WAT,HYDRO,115.2,,1324,0.16,0,0.23,0.08,0.16,0.02,0.06,23,0,43,21,54,18,39,17,0,27,20,49,21,26,0.35,0.05,0.3,0.4,0.16,0.06,0.12,0.38,0.01,0.36,0.35,0.17,0.06,0.13,3
180,2021,AL,H Neely Henry Dam,11,33.7845,-86.0524,WAT,HYDRO,72.9,,2650,0.24,0,0.41,0.07,0.19,0.05,0.18,41,0,70,18,64,54,76,34,0,58,17,60,54,68,0.35,0.05,0.3,0.4,0.16,0.06,0.12,0.38,0.01,0.36,0.35,0.17,0.06,0.13,3
181,2021,AL,Harris Dam,6188,33.258281,-85.616047,WAT,HYDRO,135,,385,0.33,0,0.44,0.22,0.21,0.05,0.12,56,0,74,42,71,52,63,52,0,62,43,69,52,48,0.35,0.05,0.3,0.4,0.16,0.06,0.12,0.38,0.01,0.36,0.35,0.17,0.06,0.13,3
182,2021,AL,Hillabee Energy Center,55411,33.000669,-85.903278,NG,GAS,822.8,,1924,0.28,0,0.37,0.18,0.26,0.05,0.13,47,0,65,36,83,46,66,41,0,51,36,83,47,53,0.35,0.05,0.3,0.4,0.16,0.06,0.12,0.38,0.01,0.36,0.35,0.17,0.06,0.13,3
183,2021,AL,Hog Bayou Energy Center,55241,30.7478,-88.0575,NG,GAS,280,,20971,0.73,0,0.62,0.85,0.17,0.07,0.2,92,0,89,86,57,66,80,89,0,84,86,52,66,73,0.35,0.05,0.3,0.4,0.16,0.06,0.12,0.38,0.01,0.36,0.35,0.17,0.06,0.13,3
184,2021,AL,Holt Dam,12,33.2553,-87.4495,WAT,HYDRO,46.9,,5936,0.33,0.01,0.3,0.36,0.14,0.04,0.17,56,59,55,56,42,38,75,51,82,39,58,35,39,65,0.35,0.05,0.3,0.4,0.16,0.06,0.12,0.38,0.01,0.36,0.35,0.17,0.06,0.13,3
185,2021,AL,International Paper Pine Hill Mill,54752,31.9698,-87.4806,BLQ,BIOMASS,77.4,Yes,288,0.63,0,0.44,0.81,0.17,0.1,0.24,85,0,73,84,55,86,85,82,0,62,85,50,85,83,0.35,0.05,0.3,0.4,0.16,0.06,0.12,0.38,0.01,0.36,0.35,0.17,0.06,0.13,3
186,2021,AL,International Paper-Prattville Mill,52140,32.4187,-86.4718,BLQ,BIOMASS,89.8,,8344,0.33,0,0.4,0.26,0.14,0.06,0.14,56,0,69,46,42,63,69,51,0,55,47,34,63,57,0.35,0.05,0.3,0.4,0.16,0.06,0.12,0.38,0.01,0.36,0.35,0.17,0.06,0.13,3
187,2021,AL,International Paper-Riverdale Mill,54096,32.426016,-86.870912,NG,GAS,104.2,,579,0.52,0,0.54,0.5,0.33,0.06,0.12,76,0,83,67,92,60,61,73,0,75,69,92,59,47,0.35,0.05,0.3,0.4,0.16,0.06,0.12,0.38,0.01,0.36,0.35,0.17,0.06,0.13,3
188,2021,AL,James H Miller Jr,6002,33.6319,-87.0597,SUB,COAL,2822,Yes,1655,0.16,0,0.29,0.04,0.31,0.05,0.13,24,0,52,11,90,53,67,18,0,37,11,90,53,53,0.35,0.05,0.3,0.4,0.16,0.06,0.12,0.38,0.01,0.36,0.35,0.17,0.06,0.13,3
189,2021,AL,Jones Bluff,6131,32.324242,-86.784319,WAT,HYDRO,82,,133,0.57,0,0.45,0.7,0.27,0.06,0.17,81,0,74,78,84,60,75,78,0,63,80,84,60,66,0.35,0.05,0.3,0.4,0.16,0.06,0.12,0.38,0.01,0.36,0.35,0.17,0.06,0.13,3
190,2021,AL,Jordan Dam,13,32.6189,-86.2548,WAT,HYDRO,100,,3255,0.33,0,0.44,0.22,0.16,0.07,0.09,56,0,74,42,50,68,52,51,0,62,43,43,67,37,0.35,0.05,0.3,0.4,0.16,0.06,0.12,0.38,0.01,0.36,0.35,0.17,0.06,0.13,3
191,2021,AL,Joseph M Farley,6001,31.2231,-85.1116,NUC,NUCLEAR,1776.4,,100,0.47,0,0.66,0.28,0.25,0.05,0.28,71,0,91,48,80,52,89,60,0,89,34,85,51,88,0.35,0.05,0.3,0.4,0.16,0.06,0.12,0.41,0.03,0.33,0.48,0.14,0.06,0.12,3
192,2021,AL,Kimberly Clark Mobile - CHP Plant,62449,30.737741,-88.04977,NG,GAS,50,,20346,0.75,0,0.61,0.88,0.18,0.06,0.17,92,0,89,88,60,62,76,90,80,84,88,55,62,67,0.35,0.05,0.3,0.4,0.16,0.06,0.12,0.38,0.01,0.36,0.35,0.17,0.06,0.13,3
193,2021,AL,LaFayette Solar Farm,60583,32.876313,-85.38821,SUN,SOLAR,79.2,,3112,0.55,0,0.48,0.61,0.2,0.07,0.19,79,0,78,73,67,64,79,76,0,68,75,64,64,72,0.35,0.05,0.3,0.4,0.16,0.06,0.12,0.38,0.01,0.36,0.35,0.17,0.06,0.13,3
194,2021,AL,Lay Dam,15,32.9633,-86.5187,WAT,HYDRO,177,,417,0.25,0,0.42,0.08,0.15,0.11,0.13,43,0,71,20,49,89,65,36,0,59,19,42,88,51,0.35,0.05,0.3,0.4,0.16,0.06,0.12,0.38,0.01,0.36,0.35,0.17,0.06,0.13,3
195,2021,AL,Lewis Smith Dam,18,33.9406,-87.1077,WAT,HYDRO,181,,1205,0.21,0,0.33,0.09,0.25,0.07,0.12,35,0,59,23,81,68,63,27,0,43,22,81,67,48,0.35,0.05,0.3,0.4,0.16,0.06,0.12,0.38,0.01,0.36,0.35,0.17,0.06,0.13,3
196,2021,AL,Logan Martin Dam,14,33.425878,-86.337547,WAT,HYDRO,128.1,,2020,0.43,0,0.41,0.43,0.23,0.03,0.16,68,0,70,62,76,27,73,64,0,58,64,75,30,62,0.35,0.05,0.3,0.4,0.16,0.06,0.12,0.38,0.01,0.36,0.35,0.17,0.06,0.13,3
197,2021,AL,Martin Dam,16,32.680394,-85.911442,WAT,HYDRO,210.6,,848,0.2,0,0.24,0.16,0.29,0.06,0.06,31,0,43,33,87,57,41,24,0,27,33,86,56,27,0.35,0.05,0.3,0.4,0.16,0.06,0.12,0.38,0.01,0.36,0.35,0.17,0.06,0.13,3
198,2021,AL,McIntosh (7063),7063,31.2546,-88.0299,NG,GAS,676,,1328,0.59,0,0.29,0.89,0.13,0.01,0.13,82,0,53,88,40,12,67,79,0,37,89,32,13,54,0.35,0.05,0.3,0.4,0.16,0.06,0.12,0.38,0.01,0.36,0.35,0.17,0.06,0.13,3
199,2021,AL,McWilliams,533,31.400255,-86.476449,NG,GAS,654,,1653,0.27,0.01,0.39,0.16,0.27,0.04,0.1,47,58,67,33,85,38,58,40,81,53,33,85,39,42,0.35,0.05,0.3,0.4,0.16,0.06,0.12,0.38,0.01,0.36,0.35,0.17,0.06,0.13,3
200,2021,AL,Millers Ferry,38,32.100881,-87.399767,WAT,HYDRO,101.1,,142,0.74,0,0.6,0.88,0.25,0.05,0.26,92,0,88,88,80,51,87,90,0,82,88,80,51,86,0.35,0.05,0.3,0.4,0.16,0.06,0.12,0.38,0.01,0.36,0.35,0.17,0.06,0.13,3
201,2021,AL,Mitchell Dam,17,32.806025,-86.444892,WAT,HYDRO,170,,606,0.17,0,0.3,0.05,0.2,0.02,0.14,26,0,54,14,68,17,69,19,0,38,13,65,20,57,0.35,0.05,0.3,0.4,0.16,0.06,0.12,0.38,0.01,0.36,0.35,0.17,0.06,0.13,3
202,2021,AL,Morgan Energy Center,55293,34.6397,-87.0639,NG,GAS,900,,1453,0.42,0.03,0.3,0.46,0.11,0.02,0.22,66,70,54,64,30,25,83,63,88,39,66,22,28,78,0.35,0.05,0.3,0.4,0.16,0.06,0.12,0.38,0.01,0.36,0.35,0.17,0.06,0.13,3
203,2021,AL,Muscle Shoals,62462,34.76973,-87.90454,SUN,SOLAR,227,,912,0.35,0,0.5,0.19,0.19,0.09,0.18,58,0,80,38,65,80,76,54,80,71,38,61,80,68,0.35,0.05,0.3,0.4,0.16,0.06,0.12,0.38,0.01,0.36,0.35,0.17,0.06,0.13,3
204,2021,AL,Packaging Corporation of America Jackson Mill,55044,31.4894,-87.8989,BLQ,BIOMASS,15.6,,3559,0.49,0.01,0.49,0.49,0.25,0.06,0.12,74,58,79,66,81,63,63,71,81,69,68,81,63,48,0.35,0.05,0.3,0.4,0.16,0.06,0.12,0.38,0.01,0.36,0.35,0.17,0.06,0.13,3
205,2021,AL,Plant H. Allen Franklin,7710,32.6078,-85.0975,NG,GAS,1995.7,,2582,0.21,0,0.3,0.12,0.27,0.06,0.11,35,0,54,27,84,58,60,27,0,38,27,84,58,45,0.35,0.05,0.3,0.4,0.16,0.06,0.12,0.38,0.01,0.36,0.35,0.17,0.06,0.13,3
206,2021,AL,Point A,55,31.361146,-86.518307,WAT,HYDRO,5.2,,1911,0.47,0,0.53,0.42,0.17,0.05,0.13,72,0,83,61,58,49,65,69,80,75,63,52,50,51,0.35,0.05,0.3,0.4,0.16,0.06,0.12,0.38,0.01,0.36,0.35,0.17,0.06,0.13,3
207,2021,AL,Redstone Arsenal Hybrid,61901,34.610987,-86.611551,SUN,SOLAR,11,,9732,0.2,0.01,0.2,0.2,0.16,0.07,0.04,32,60,36,39,51,69,29,25,83,21,39,44,68,18,0.35,0.05,0.3,0.4,0.16,0.06,0.12,0.38,0.01,0.36,0.35,0.17,0.06,0.13,3
208,2021,AL,River Bend Solar LLC,60058,34.831511,-87.842204,SUN,SOLAR,75,,792,0.28,0,0.44,0.12,0.3,0.03,0.18,48,0,73,27,89,32,76,41,80,61,27,89,34,68,0.35,0.05,0.3,0.4,0.16,0.06,0.12,0.38,0.01,0.36,0.35,0.17,0.06,0.13,3
209,2021,AL,SABIC Innovative Plastics - Burkville,7698,32.310226,-86.52542,NG,GAS,97,,120,0.46,0,0.4,0.51,0.24,0.1,0.03,70,0,69,67,79,85,24,67,0,55,70,78,84,15,0.35,0.05,0.3,0.4,0.16,0.06,0.12,0.38,0.01,0.36,0.35,0.17,0.06,0.13,3
210,2021,AL,Sand Valley Power Station,59710,34.343875,-85.866103,LFG,BIOMASS,4.8,,644,0.4,0.05,0.52,0.25,0.29,0.02,0.32,64,75,82,45,87,17,92,60,92,73,47,87,20,93,0.35,0.05,0.3,0.4,0.16,0.06,0.12,0.38,0.01,0.36,0.35,0.17,0.06,0.13,3
211,2021,AL,Sloss Industries Corp,50359,33.568164,-86.79873,NG,GAS,25,,31828,0.71,0.02,0.58,0.84,0.17,0.07,0.18,90,63,86,85,56,64,77,88,85,80,86,50,64,70,0.35,0.05,0.3,0.4,0.16,0.06,0.12,0.38,0.01,0.36,0.35,0.17,0.06,0.13,3
212,2021,AL,Tenaska Lindsay Hill Generating Station,55271,32.6514,-86.7386,NG,GAS,939.4,,587,0.28,0,0.39,0.17,0.12,0.09,0.08,48,0,68,34,36,79,50,42,0,54,34,29,79,35,0.35,0.05,0.3,0.4,0.16,0.06,0.12,0.38,0.01,0.36,0.35,0.17,0.06,0.13,3
213,2021,AL,Theodore Cogeneration,7721,30.525445,-88.128477,NG,GAS,317.4,,4840,0.41,0,0.43,0.39,0.21,0.07,0.15,65,0,72,58,69,65,70,62,0,60,61,66,65,58,0.35,0.05,0.3,0.4,0.16,0.06,0.12,0.38,0.01,0.36,0.35,0.17,0.06,0.13,3
214,2021,AL,Thurlow Dam,19,32.535436,-85.887614,WAT,HYDRO,91,,5958,0.33,0.01,0.39,0.26,0.19,0.05,0.22,55,58,67,46,63,46,83,50,82,54,48,59,47,78,0.35,0.05,0.3,0.4,0.16,0.06,0.12,0.38,0.01,0.36,0.35,0.17,0.06,0.13,3
215,2021,AL,U S Alliance Coosa Pines,54216,33.328107,-86.356825,BLQ,BIOMASS,25.9,,1956,0.32,0,0.34,0.29,0.22,0.02,0.13,54,0,60,49,74,23,66,49,0,45,52,72,26,52,0.35,0.05,0.3,0.4,0.16,0.06,0.12,0.38,0.01,0.36,0.35,0.17,0.06,0.13,3
216,2021,AL,W&T Onshore Treating Facility (OTF),54550,30.43203,-88.18241,NG,GAS,12,,2654,0.28,0.04,0.44,0.12,0.16,0.05,0.24,48,70,74,27,51,53,85,42,88,62,26,44,53,82,0.35,0.05,0.3,0.4,0.16,0.06,0.12,0.38,0.01,0.36,0.35,0.17,0.06,0.13,3
217,2021,AL,Walter Bouldin Dam,4,32.583889,-86.283056,WAT,HYDRO,225,,4409,0.34,0,0.45,0.23,0.17,0.05,0.12,57,0,74,43,57,49,62,53,80,63,44,51,50,48,0.35,0.05,0.3,0.4,0.16,0.06,0.12,0.38,0.01,0.36,0.35,0.17,0.06,0.13,3
218,2021,AL,Walton Discover Power Facility,55138,32.54098,-85.038879,NG,GAS,103,,18532,0.23,0,0.21,0.25,0.19,0.05,0.06,38,0,38,45,64,48,40,31,80,22,46,60,49,26,0.35,0.05,0.3,0.4,0.16,0.06,0.12,0.38,0.01,0.36,0.35,0.17,0.06,0.13,3
219,2021,AL,Washington County Cogen (Olin),7697,31.2504,-88.0156,NG,GAS,122.5,,1169,0.61,0,0.33,0.9,0.14,0.01,0.1,84,0,59,89,43,12,58,81,0,43,89,35,14,43,0.35,0.05,0.3,0.4,0.16,0.06,0.12,0.38,0.01,0.36,0.35,0.17,0.06,0.13,3
220,2021,AL,Weiss Dam,20,34.172142,-85.753806,WAT,HYDRO,87.6,,2504,0.23,0.03,0.35,0.1,0.25,0.03,0.13,38,70,62,24,80,29,67,31,88,47,24,80,32,53,0.35,0.05,0.3,0.4,0.16,0.06,0.12,0.38,0.01,0.36,0.35,0.17,0.06,0.13,3
221,2021,AL,Westervelt Moundville Cogen,57467,32.960714,-87.655419,WDS,BIOMASS,13,,1966,0.44,0,0.41,0.47,0.17,0.08,0.17,69,0,70,64,56,75,75,65,0,57,67,50,74,66,0.35,0.05,0.3,0.4,0.16,0.06,0.12,0.38,0.01,0.36,0.35,0.17,0.06,0.13,3
222,2021,AL,WestRock Coated Board,54802,32.1761,-85.0272,NG,GAS,120.5,,243,0.58,0,0.65,0.51,0.25,0.03,0.16,81,0,91,67,81,31,72,73,0,88,55,85,31,67,0.35,0.05,0.3,0.4,0.16,0.06,0.12,0.41,0.03,0.33,0.48,0.14,0.06,0.12,3
223,2021,AL,WestRock Demopolis Mill,54763,32.4541,-87.9759,BLQ,BIOMASS,47.4,,280,0.37,0,0.37,0.37,0.23,0.02,0.02,61,0,64,57,76,24,20,57,0,50,59,75,26,13,0.35,0.05,0.3,0.4,0.16,0.06,0.12,0.38,0.01,0.36,0.35,0.17,0.06,0.13,3
224,2021,AL,Wheeler Dam,49,34.8069,-87.3819,WAT,HYDRO,404,,1542,0.23,0,0.25,0.21,0.24,0.07,0.18,39,0,45,41,78,67,77,31,0,29,41,77,67,70,0.35,0.05,0.3,0.4,0.16,0.06,0.12,0.38,0.01,0.36,0.35,0.17,0.06,0.13,3
225,2021,AL,Wilson Dam,6440,34.79782,-87.62537,WAT,HYDRO,666.7,,14825,0.4,0.04,0.49,0.29,0.18,0.06,0.15,64,71,79,50,60,62,70,60,89,69,52,55,62,58,0.35,0.05,0.3,0.4,0.16,0.06,0.12,0.38,0.01,0.36,0.35,0.17,0.06,0.13,3
226,2021,AL,Yates Dam,21,32.5743,-85.8901,WAT,HYDRO,50.5,,6110,0.27,0.02,0.36,0.18,0.2,0.07,0.18,46,64,63,37,66,67,77,40,86,48,37,62,67,69,0.35,0.05,0.3,0.4,0.16,0.06,0.12,0.38,0.01,0.36,0.35,0.17,0.06,0.13,3
227,2021,AL,Yellowhammer Gas Plant,54730,30.403538,-88.12833,NG,GAS,3.4,,2100,0.25,0,0.35,0.14,0.18,0.05,0.21,42,0,62,30,59,54,82,35,80,47,30,54,54,77,0.35,0.05,0.3,0.4,0.16,0.06,0.12,0.38,0.01,0.36,0.35,0.17,0.06,0.13,3
228,2021,AR,Arkansas Nuclear One,8055,35.311,-93.2351,NUC,NUCLEAR,1845,,3167,0.18,0,0.27,0.08,0.28,0.05,0.1,28,0,49,20,86,49,55,20,78,26,26,84,47,39,0.35,0.05,0.3,0.4,0.16,0.06,0.12,0.36,0.02,0.39,0.28,0.17,0.06,0.13,3
229,2021,AR,Ashdown,54104,33.6417,-94.1083,BLQ,BIOMASS,156.5,Yes,3781,0.45,0,0.48,0.41,0.21,0.08,0.1,69,0,78,60,71,76,58,71,0,64,71,66,74,43,0.35,0.05,0.3,0.4,0.16,0.06,0.12,0.36,0.02,0.39,0.28,0.17,0.06,0.13,3
230,2021,AR,Beaver Dam,182,36.421507,-93.847373,WAT,HYDRO,112,,1146,0.15,0,0.26,0.04,0.48,0.01,0.15,22,0,47,13,97,14,71,13,0,24,16,98,14,63,0.35,0.05,0.3,0.4,0.16,0.06,0.12,0.36,0.02,0.39,0.28,0.17,0.06,0.13,3
231,2021,AR,Blakely Mountain,197,34.570984,-93.194425,WAT,HYDRO,75,,2039,0.3,0,0.47,0.12,0.21,0.07,0.11,51,0,77,27,70,64,59,48,0,63,35,65,61,43,0.35,0.05,0.3,0.4,0.16,0.06,0.12,0.36,0.02,0.39,0.28,0.17,0.06,0.13,3
232,2021,AR,Branch Solar Farm,64392,35.306183,-93.925758,SUN,SOLAR,5,,1409,0.34,0,0.43,0.26,0.22,0.12,0.12,57,0,72,46,73,92,63,57,0,55,57,69,90,49,0.35,0.05,0.3,0.4,0.16,0.06,0.12,0.36,0.02,0.39,0.28,0.17,0.06,0.13,3
233,2021,AR,Bull Shoals,198,36.3635,-92.5763,WAT,HYDRO,340,,3709,0.21,0.01,0.32,0.1,0.42,0.02,0.08,35,58,58,24,96,23,47,27,80,35,30,97,21,30,0.35,0.05,0.3,0.4,0.16,0.06,0.12,0.36,0.02,0.39,0.28,0.17,0.06,0.13,3
234,2021,AR,Carl Bailey,202,35.260102,-91.363426,NG,GAS,120,,1976,0.48,0,0.49,0.46,0.21,0.11,0.12,72,0,79,64,71,88,63,75,0,66,75,66,86,50,0.35,0.05,0.3,0.4,0.16,0.06,0.12,0.36,0.02,0.39,0.28,0.17,0.06,0.13,3
235,2021,AR,Carpenter,166,34.4425,-93.0262,WAT,HYDRO,56,,13425,0.24,0.03,0.22,0.26,0.26,0.04,0.09,40,70,40,46,83,43,54,33,87,18,56,80,41,38,0.35,0.05,0.3,0.4,0.16,0.06,0.12,0.36,0.02,0.39,0.28,0.17,0.06,0.13,3
236,2021,AR,Chicot Solar,63295,33.479,-91.349,SUN,SOLAR,100,,158,0.55,0,0.69,0.41,0.12,0.02,0.31,79,0,93,60,34,22,92,82,0,90,71,28,21,93,0.35,0.05,0.3,0.4,0.16,0.06,0.12,0.36,0.02,0.39,0.28,0.17,0.06,0.13,3
237,2021,AR,City of Paris Solar,64444,35.301,-93.734,SUN,SOLAR,1.5,,4249,0.29,0,0.47,0.12,0.24,0.06,0.15,50,0,76,27,79,58,70,47,0,62,35,76,55,62,0.35,0.05,0.3,0.4,0.16,0.06,0.12,0.36,0.02,0.39,0.28,0.17,0.06,0.13,3
238,2021,AR,City Water & Light - City of Jonesboro,56505,35.848561,-90.725377,NG,GAS,224.3,,35934,0.45,0.03,0.51,0.37,0.13,0.07,0.12,70,69,80,57,40,65,62,71,87,68,68,34,63,48,0.35,0.05,0.3,0.4,0.16,0.06,0.12,0.36,0.02,0.39,0.28,0.17,0.06,0.13,3
239,2021,AR,Clearwater Paper APP CB,50638,33.7061,-91.2371,BLQ,BIOMASS,28,,0,N/A,N/A,N/A,N/A,N/A,N/A,N/A,N/A,N/A,N/A,N/A,N/A,N/A,N/A,N/A,N/A,N/A,N/A,N/A,N/A,N/A,0.35,0.05,0.3,0.4,0.16,0.06,0.12,0.36,0.02,0.39,0.28,0.17,0.06,0.13,3
240,2021,AR,Dam 2,7246,33.986501,-91.315788,WAT,HYDRO,102.6,,35,0.37,0,0.49,0.24,0.29,0.04,0.2,60,0,79,44,88,37,80,60,0,65,54,86,35,76,0.35,0.05,0.3,0.4,0.16,0.06,0.12,0.36,0.02,0.39,0.28,0.17,0.06,0.13,3
241,2021,AR,Dardanelle,199,35.2503,-93.1686,WAT,HYDRO,160.8,,18650,0.37,0.05,0.48,0.25,0.17,0.08,0.16,60,74,78,45,58,73,73,60,90,65,55,52,71,65,0.35,0.05,0.3,0.4,0.16,0.06,0.12,0.36,0.02,0.39,0.28,0.17,0.06,0.13,3
242,2021,AR,Degray,187,34.211913,-93.110963,WAT,HYDRO,70,,629,0.33,0.02,0.43,0.22,0.16,0.05,0.12,55,62,72,42,52,48,64,54,82,56,52,46,47,51,0.35,0.05,0.3,0.4,0.16,0.06,0.12,0.36,0.02,0.39,0.28,0.17,0.06,0.13,3
243,2021,AR,Dell Power Plant,55340,35.8619,-90.0253,NG,GAS,679.1,,508,0.21,0.01,0.34,0.09,0.14,0.07,0.17,35,59,59,22,45,68,76,27,80,37,28,39,66,69,0.35,0.05,0.3,0.4,0.16,0.06,0.12,0.36,0.02,0.39,0.28,0.17,0.06,0.13,3
244,2021,AR,Elkins Generating Center,56489,35.9714,-94.0014,NG,GAS,66,,1892,0.13,0,0.26,0.01,0.19,0.02,0.1,18,0,47,5,65,24,56,10,78,23,5,60,22,40,0.35,0.05,0.3,0.4,0.16,0.06,0.12,0.36,0.02,0.39,0.28,0.17,0.06,0.13,3
245,2021,AR,Ellis Hydro,7040,35.351361,-94.294349,WAT,HYDRO,32.4,,12365,0.27,0.04,0.38,0.16,0.2,0.05,0.08,46,70,65,33,67,50,49,41,88,46,42,62,48,32,0.35,0.05,0.3,0.4,0.16,0.06,0.12,0.36,0.02,0.39,0.28,0.17,0.06,0.13,3
246,2021,AR,FECC Solar Benton,61839,34.638429,-92.578347,SUN,SOLAR,1,,12157,0.15,0.02,0.19,0.11,0.11,0.07,0.05,21,62,34,25,32,64,35,12,82,13,33,26,61,20,0.35,0.05,0.3,0.4,0.16,0.06,0.12,0.36,0.02,0.39,0.28,0.17,0.06,0.13,3
247,2021,AR,Flint Creek Power Plant,6138,36.2561,-94.5241,SUB,COAL,558,Yes,6316,0.33,0.05,0.44,0.22,0.17,0.1,0.09,56,74,73,41,55,84,52,54,90,58,51,49,82,35,0.35,0.05,0.3,0.4,0.16,0.06,0.12,0.36,0.02,0.39,0.28,0.17,0.06,0.13,3
248,2021,AR,Forrest City- Eldridge Road,64262,35.03789,-90.80707,SUN,SOLAR,1,,11257,0.67,0.08,0.63,0.7,0.12,0.07,0.22,87,82,90,78,36,68,83,89,94,84,87,30,66,80,0.35,0.05,0.3,0.4,0.16,0.06,0.12,0.36,0.02,0.39,0.28,0.17,0.06,0.13,3
249,2021,AR,Forrest City- Prison Site,64261,34.97953,-90.80602,SUN,SOLAR,1,,10566,0.72,0.07,0.66,0.76,0.1,0.06,0.21,91,81,91,81,25,58,82,92,93,87,90,20,56,79,0.35,0.05,0.3,0.4,0.16,0.06,0.12,0.36,0.02,0.39,0.28,0.17,0.06,0.13,3
250,2021,AR,Fourche Creek Wastewater,10050,34.6968,-92.165,OBG,BIOMASS,1.3,,1414,0.41,0,0.31,0.51,0.22,0.01,0.13,66,0,56,67,72,15,66,67,0,33,78,68,14,55,0.35,0.05,0.3,0.4,0.16,0.06,0.12,0.36,0.02,0.39,0.28,0.17,0.06,0.13,3
251,2021,AR,Fulton,7825,33.6094,-93.7924,NG,GAS,154.8,,394,0.38,0.03,0.46,0.3,0.25,0.05,0.12,62,67,76,50,81,52,62,63,86,61,61,78,49,48,0.35,0.05,0.3,0.4,0.16,0.06,0.12,0.36,0.02,0.39,0.28,0.17,0.06,0.13,3
252,2021,AR,General Dynamics,65351,33.602,-92.541,SUN,SOLAR,2,,215,0.32,0,0.36,0.27,0.17,0.04,0.14,54,0,64,48,56,45,70,53,0,43,59,50,43,60,0.35,0.05,0.3,0.4,0.16,0.06,0.12,0.36,0.02,0.39,0.28,0.17,0.06,0.13,3
253,2021,AR,Georgia-Pacific Crossett LLC,10606,33.1421,-91.975,NG,GAS,25,,7968,0.44,0,0.49,0.4,0.21,0.04,0.14,69,0,79,59,72,40,68,70,0,65,69,68,39,58,0.35,0.05,0.3,0.4,0.16,0.06,0.12,0.36,0.02,0.39,0.28,0.17,0.06,0.13,3
254,2021,AR,Greers Ferry Lake,188,35.5207,-91.9953,WAT,HYDRO,96,,6041,0.19,0,0.3,0.08,0.26,0.07,0.12,30,0,53,20,82,67,64,21,0,30,26,80,64,51,0.35,0.05,0.3,0.4,0.16,0.06,0.12,0.36,0.02,0.39,0.28,0.17,0.06,0.13,3
255,2021,AR,Harry D. Mattison Power Plant,56328,36.1855,-94.2841,NG,GAS,349,,3418,0.21,0.02,0.25,0.16,0.17,0.05,0.13,34,65,45,34,58,54,65,25,85,22,43,52,52,53,0.35,0.05,0.3,0.4,0.16,0.06,0.12,0.36,0.02,0.39,0.28,0.17,0.06,0.13,3
256,2021,AR,Hot Spring Energy Facility,55418,34.29759,-92.868344,NG,GAS,714.8,,944,0.25,0,0.29,0.22,0.16,0.03,0.16,43,0,52,42,54,30,72,37,0,29,52,48,27,65,0.35,0.05,0.3,0.4,0.16,0.06,0.12,0.36,0.02,0.39,0.28,0.17,0.06,0.13,3
257,2021,AR,Hot Springs 2020,64263,34.421,-93.19485,SUN,SOLAR,1,,6246,0.21,0.01,0.33,0.09,0.2,0.04,0.09,35,59,59,23,68,40,52,27,80,37,29,64,38,35,0.35,0.05,0.3,0.4,0.16,0.06,0.12,0.36,0.02,0.39,0.28,0.17,0.06,0.13,3
258,2021,AR,Independence,6641,35.678442,-91.408761,SUB,COAL,1800,Yes,1274,0.31,0,0.57,0.05,0.19,0.03,0.3,53,0,86,13,62,26,91,51,0,78,16,56,24,92,0.35,0.05,0.3,0.4,0.16,0.06,0.12,0.36,0.02,0.39,0.28,0.17,0.06,0.13,3
259,2021,AR,John W. Turk Jr. Power Plant,56564,33.649722,-93.811944,SUB,COAL,609,Yes,500,0.34,0.03,0.42,0.26,0.28,0.07,0.11,57,68,71,47,86,65,60,57,86,55,57,84,62,46,0.35,0.05,0.3,0.4,0.16,0.06,0.12,0.36,0.02,0.39,0.28,0.17,0.06,0.13,3
260,2021,AR,Lake Catherine,170,34.4341,-92.9049,NG,GAS,552.5,,2869,0.18,0,0.31,0.05,0.21,0.05,0.05,28,0,56,14,71,54,35,19,0,33,17,66,51,20,0.35,0.05,0.3,0.4,0.16,0.06,0.12,0.36,0.02,0.39,0.28,0.17,0.06,0.13,3
261,2021,AR,Lee Creek Water Treatment Facility,54283,35.484488,-94.392858,WAT,HYDRO,1.3,,12978,0.24,0,0.33,0.15,0.17,0.05,0.13,40,0,58,32,55,52,64,33,78,36,40,48,50,52,0.35,0.05,0.3,0.4,0.16,0.06,0.12,0.36,0.02,0.39,0.28,0.17,0.06,0.13,3
262,2021,AR,Magnet Cove Generating Station,55714,34.4297,-92.8317,NG,GAS,746,,2863,0.16,0,0.29,0.03,0.2,0.06,0.06,24,0,52,10,66,59,41,15,78,28,13,61,56,25,0.35,0.05,0.3,0.4,0.16,0.06,0.12,0.36,0.02,0.39,0.28,0.17,0.06,0.13,3
263,2021,AR,McClellan,203,33.5648,-92.7917,NG,GAS,136,,2971,0.6,0,0.57,0.61,0.22,0.1,0.19,82,0,86,74,74,86,79,85,0,78,84,69,84,76,0.35,0.05,0.3,0.4,0.16,0.06,0.12,0.36,0.02,0.39,0.28,0.17,0.06,0.13,3
264,2021,AR,Municipal Light,193,36.3858,-90.1867,DFO,OIL,7.2,,3836,0.28,0,0.5,0.05,0.2,0.07,0.13,47,0,80,14,67,71,66,43,0,68,17,62,68,55,0.35,0.05,0.3,0.4,0.16,0.06,0.12,0.36,0.02,0.39,0.28,0.17,0.06,0.13,3
265,2021,AR,Murray,7166,34.7956,-92.3569,WAT,HYDRO,45.4,,40812,0.27,0.01,0.24,0.3,0.18,0.05,0.03,46,60,45,50,61,49,22,41,81,21,61,54,48,12,0.35,0.05,0.3,0.4,0.16,0.06,0.12,0.36,0.02,0.39,0.28,0.17,0.06,0.13,3
266,2021,AR,Narrows (AR),195,34.148427,-93.715168,WAT,HYDRO,25.5,,132,0.15,0,0.27,0.04,0.28,0.03,0.1,22,0,49,10,85,33,57,13,0,26,13,83,31,42,0.35,0.05,0.3,0.4,0.16,0.06,0.12,0.36,0.02,0.39,0.28,0.17,0.06,0.13,3
267,2021,AR,Noland Wastewater Treatment Plant Hybrid,62682,36.082301,-94.067149,SUN,SOLAR,11,,10202,0.18,0,0.19,0.17,0.15,0.07,0.05,27,0,34,34,47,64,32,19,0,13,43,41,61,18,0.35,0.05,0.3,0.4,0.16,0.06,0.12,0.36,0.02,0.39,0.28,0.17,0.06,0.13,3
268,2021,AR,Norfork,196,36.2491,-92.2401,WAT,HYDRO,80.4,,961,0.22,0,0.4,0.04,0.38,0.05,0.1,37,0,68,12,95,54,54,29,0,50,15,95,51,38,0.35,0.05,0.3,0.4,0.16,0.06,0.12,0.36,0.02,0.39,0.28,0.17,0.06,0.13,3
269,2021,AR,Osceola (AR),172,35.705381,-89.9689,DFO,OIL,1.6,,6760,0.55,0,0.48,0.63,0.15,0.04,0.21,79,0,78,74,49,43,82,82,0,64,85,44,41,80,0.35,0.05,0.3,0.4,0.16,0.06,0.12,0.36,0.02,0.39,0.28,0.17,0.06,0.13,3
270,2021,AR,Oswald Generating Station,55221,34.5923,-92.2166,NG,GAS,599.5,,3357,0.55,0.01,0.45,0.62,0.11,0.04,0.21,79,60,74,74,29,36,81,82,81,59,84,24,34,78,0.35,0.05,0.3,0.4,0.16,0.06,0.12,0.36,0.02,0.39,0.28,0.17,0.06,0.13,3
271,2021,AR,Ozark,6142,35.4693,-93.8175,WAT,HYDRO,100,,4731,0.27,0,0.48,0.06,0.22,0.07,0.15,46,0,77,15,72,68,70,40,0,64,19,68,66,61,0.35,0.05,0.3,0.4,0.16,0.06,0.12,0.36,0.02,0.39,0.28,0.17,0.06,0.13,3
272,2021,AR,Ozarks Natural Energy Community Solar,60924,36.164296,-94.082269,SUN,SOLAR,1,,33153,0.55,0.14,0.43,0.67,0.08,0.07,0.32,79,89,73,76,18,69,92,82,97,57,86,13,67,93,0.35,0.05,0.3,0.4,0.16,0.06,0.12,0.36,0.02,0.39,0.28,0.17,0.06,0.13,3
273,2021,AR,Paragould Reciprocating,8015,36.0242,-90.5094,NG,GAS,19.2,,15630,0.24,0.01,0.39,0.09,0.16,0.05,0.08,40,57,66,22,54,52,47,33,78,47,28,48,49,30,0.35,0.05,0.3,0.4,0.16,0.06,0.12,0.36,0.02,0.39,0.28,0.17,0.06,0.13,3
274,2021,AR,Paragould Turbine,7283,36.024272,-90.509229,NG,GAS,13.9,,15683,0.24,0.01,0.39,0.09,0.16,0.05,0.08,40,57,67,22,54,52,47,33,78,47,28,48,49,30,0.35,0.05,0.3,0.4,0.16,0.06,0.12,0.36,0.02,0.39,0.28,0.17,0.06,0.13,3
275,2021,AR,Pine Bluff Energy Center,55075,34.2181,-91.9025,NG,GAS,236,,299,0.46,0,0.34,0.58,0.39,0.02,0.13,71,0,61,72,95,22,67,73,0,39,82,95,20,56,0.35,0.05,0.3,0.4,0.16,0.06,0.12,0.36,0.02,0.39,0.28,0.17,0.06,0.13,3
276,2021,AR,Pine Bluff Mill,10627,34.221213,-91.907365,BLQ,BIOMASS,85,,297,0.46,0,0.34,0.58,0.39,0.02,0.13,71,0,60,72,95,21,67,73,0,38,82,95,20,56,0.35,0.05,0.3,0.4,0.16,0.06,0.12,0.36,0.02,0.39,0.28,0.17,0.06,0.13,3
277,2021,AR,Plum Point Energy Station,56456,35.6644,-89.9489,SUB,COAL,720,Yes,2295,0.58,0,0.5,0.67,0.11,0.06,0.19,81,0,79,77,29,60,79,84,0,66,86,23,57,75,0.35,0.05,0.3,0.4,0.16,0.06,0.12,0.36,0.02,0.39,0.28,0.17,0.06,0.13,3
278,2021,AR,Remmel,174,34.4272,-92.8941,WAT,HYDRO,9,,1892,0.18,0,0.31,0.05,0.22,0.05,0.06,28,0,55,14,74,54,39,19,0,32,18,70,51,23,0.35,0.05,0.3,0.4,0.16,0.06,0.12,0.36,0.02,0.39,0.28,0.17,0.06,0.13,3
279,2021,AR,Riceland Foods Cogeneration Plant,56079,34.5136,-91.5331,OBS,BIOMASS,18,,8811,0.41,0.01,0.41,0.4,0.19,0.07,0.16,65,57,69,60,65,65,72,66,79,52,70,59,62,64,0.35,0.05,0.3,0.4,0.16,0.06,0.12,0.36,0.02,0.39,0.28,0.17,0.06,0.13,3
280,2021,AR,Scenic Hill Solar III,61869,35.46715,-93.51517,SUN,SOLAR,5,,7405,0.41,0.05,0.49,0.34,0.17,0.05,0.25,66,75,79,54,55,50,87,67,91,66,65,48,48,86,0.35,0.05,0.3,0.4,0.16,0.06,0.12,0.36,0.02,0.39,0.28,0.17,0.06,0.13,3
281,2021,AR,Scenic Hill Solar IV LLC,63627,35.47056,-93.4464,SUN,SOLAR,2.2,,9292,0.4,0.05,0.5,0.3,0.17,0.05,0.22,64,75,80,50,57,53,83,65,90,68,61,50,51,82,0.35,0.05,0.3,0.4,0.16,0.06,0.12,0.36,0.02,0.39,0.28,0.17,0.06,0.13,3
282,2021,AR,SR Camden,59947,33.631538,-92.703611,SUN,SOLAR,12,,1546,0.38,0,0.38,0.37,0.15,0.04,0.05,62,0,66,57,48,44,37,62,0,47,68,42,42,21,0.35,0.05,0.3,0.4,0.16,0.06,0.12,0.36,0.02,0.39,0.28,0.17,0.06,0.13,3
283,2021,AR,Stuttgart Solar,61262,34.439722,-91.44,SUN,SOLAR,81,,227,0.21,0,0.25,0.17,0.13,0.08,0.08,35,0,46,35,41,71,49,27,0,22,44,34,69,33,0.35,0.05,0.3,0.4,0.16,0.06,0.12,0.36,0.02,0.39,0.28,0.17,0.06,0.13,3
284,2021,AR,Thomas Fitzhugh,201,35.462382,-93.804926,NG,GAS,185,,4115,0.26,0,0.44,0.08,0.21,0.07,0.15,44,0,73,20,71,71,71,38,0,57,25,67,68,62,0.35,0.05,0.3,0.4,0.16,0.06,0.12,0.36,0.02,0.39,0.28,0.17,0.06,0.13,3
285,2021,AR,Two Pine Landfill Gas Recovery,56523,34.8332,-92.157103,LFG,BIOMASS,4.8,,19133,0.38,0,0.31,0.45,0.19,0.06,0.1,62,0,56,63,64,59,56,62,78,33,74,59,56,40,0.35,0.05,0.3,0.4,0.16,0.06,0.12,0.36,0.02,0.39,0.28,0.17,0.06,0.13,3
286,2021,AR,UA Central Utility Plant,60536,36.066336,-94.172254,NG,GAS,5.6,,56004,0.4,0.02,0.52,0.25,0.06,0.05,0.07,65,64,82,45,14,49,46,65,84,70,55,10,47,29,0.35,0.05,0.3,0.4,0.16,0.06,0.12,0.36,0.02,0.39,0.28,0.17,0.06,0.13,3
287,2021,AR,Union Power Station,55380,33.296146,-92.589364,NG,GAS,2428,,626,0.23,0,0.31,0.16,0.16,0.03,0.13,40,0,55,33,52,33,65,33,0,33,42,46,31,53,0.35,0.05,0.3,0.4,0.16,0.06,0.12,0.36,0.02,0.39,0.28,0.17,0.06,0.13,3
288,2021,AR,Waste Management Eco Vista LFGTE,57025,36.140849,-94.259713,LFG,BIOMASS,4,,5595,0.19,0.03,0.18,0.2,0.22,0.07,0.18,30,67,33,38,73,64,77,21,86,12,48,69,62,72,0.35,0.05,0.3,0.4,0.16,0.06,0.12,0.36,0.02,0.39,0.28,0.17,0.06,0.13,3
289,2021,AR,Westside Wastewater Treatment Plant Hybrid,62683,36.04135,-94.140079,SUN,SOLAR,11,,33951,0.39,0.01,0.51,0.23,0.07,0.04,0.08,63,59,80,43,15,37,48,64,80,68,52,11,34,31,0.35,0.05,0.3,0.4,0.16,0.06,0.12,0.36,0.02,0.39,0.28,0.17,0.06,0.13,3
290,2021,AR,Whillock,7135,35.127591,-92.790273,WAT,HYDRO,32.4,,2692,0.39,0,0.58,0.19,0.19,0.06,0.16,63,0,86,38,64,59,73,63,0,79,47,59,56,66,0.35,0.05,0.3,0.4,0.16,0.06,0.12,0.36,0.02,0.39,0.28,0.17,0.06,0.13,3
291,2021,AR,White Bluff,6009,34.4228,-92.1406,SUB,COAL,1800,Yes,1990,0.22,0,0.3,0.14,0.17,0.04,0.12,37,0,54,31,58,44,63,29,0,30,39,51,42,49,0.35,0.05,0.3,0.4,0.16,0.06,0.12,0.36,0.02,0.39,0.28,0.17,0.06,0.13,3
292,2021,AR,White River Lock and Dam 1,57160,35.757401,-91.636887,WAT,HYDRO,4.3,,14014,0.28,0.02,0.36,0.21,0.19,0.07,0.15,48,63,63,40,64,69,71,45,83,43,50,58,67,63,0.35,0.05,0.3,0.4,0.16,0.06,0.12,0.36,0.02,0.39,0.28,0.17,0.06,0.13,3
293,2021,AR,White River Lock and Dam 2,57161,35.744036,-91.765418,WAT,HYDRO,3.5,,815,0.21,0,0.37,0.05,0.17,0.09,0.19,34,0,65,13,58,78,79,26,78,45,16,52,76,75,0.35,0.05,0.3,0.4,0.16,0.06,0.12,0.36,0.02,0.39,0.28,0.17,0.06,0.13,3
294,2021,AR,White River Lock and Dam 3,57162,35.84361,-91.850521,WAT,HYDRO,4.3,,191,0.22,0,0.37,0.08,0.2,0.05,0.23,38,0,64,20,68,47,84,30,0,44,25,64,45,83,0.35,0.05,0.3,0.4,0.16,0.06,0.12,0.36,0.02,0.39,0.28,0.17,0.06,0.13,3
295,2021,AZ,Actus Lend Lease DMAFB,58632,32.1825,-110.863333,SUN,SOLAR,3,,74091,0.48,0.04,0.45,0.51,0.15,0.07,0.11,72,73,74,67,49,70,61,69,73,70,64,54,70,62,0.35,0.05,0.3,0.4,0.16,0.06,0.12,0.38,0.04,0.33,0.46,0.18,0.06,0.12,3
296,2021,AZ,AES ES GILBERT,61861,33.446804,-111.956261,MWH,OTHF,10,,115150,0.44,0.04,0.4,0.48,0.08,0.04,0.1,68,73,68,65,19,42,57,64,73,64,62,26,44,59,0.35,0.05,0.3,0.4,0.16,0.06,0.12,0.38,0.04,0.33,0.46,0.18,0.06,0.12,3
297,2021,AZ,Agua Caliente Solar Project,57373,32.9774,-113.4945,SUN,SOLAR,347.7,,0,N/A,N/A,N/A,N/A,N/A,N/A,N/A,N/A,N/A,N/A,N/A,N/A,N/A,N/A,N/A,N/A,N/A,N/A,N/A,N/A,N/A,0.35,0.05,0.3,0.4,0.16,0.06,0.12,0.38,0.04,0.33,0.46,0.18,0.06,0.12,3
298,2021,AZ,Agua Fria Generating Station,141,33.5561,-112.2153,NG,GAS,638.5,,157121,0.52,0.05,0.43,0.61,0.11,0.08,0.19,76,75,72,73,30,73,78,74,75,68,73,37,72,75,0.35,0.05,0.3,0.4,0.16,0.06,0.12,0.38,0.04,0.33,0.46,0.18,0.06,0.12,3
299,2021,AZ,Amphitheater High School Solar,60684,32.269,-110.975,SUN,SOLAR,1,,118152,0.54,0.06,0.54,0.53,0.14,0.04,0.14,78,78,83,68,44,42,67,75,79,80,66,50,44,67,0.35,0.05,0.3,0.4,0.16,0.06,0.12,0.38,0.04,0.33,0.46,0.18,0.06,0.12,3
300,2021,AZ,Apache Solar 1,60964,32.068141,-109.890379,SUN,SOLAR,20,,128,0.31,0.07,0.44,0.18,0.35,0.03,0.11,53,79,74,36,93,33,59,45,80,69,21,85,36,61,0.35,0.05,0.3,0.4,0.16,0.06,0.12,0.38,0.04,0.33,0.46,0.18,0.06,0.12,3
301,2021,AZ,Apache Station,160,32.0603,-109.8931,SUB,COAL,660.7,Yes,107,0.31,0.06,0.44,0.18,0.35,0.03,0.11,52,78,73,36,93,35,60,45,79,69,21,85,37,61,0.35,0.05,0.3,0.4,0.16,0.06,0.12,0.38,0.04,0.33,0.46,0.18,0.06,0.12,3
302,2021,AZ,APS Saguaro Power Plant,118,32.5517,-111.3,NG,GAS,184.5,,3884,0.3,0.03,0.3,0.3,0.12,0.11,0.1,52,69,55,51,34,88,57,44,67,52,40,42,87,59,0.35,0.05,0.3,0.4,0.16,0.06,0.12,0.38,0.04,0.33,0.46,0.18,0.06,0.12,3
303,2021,AZ,APS West Phoenix Power Plant,117,33.4417,-112.1583,NG,GAS,1207.4,,113377,0.75,0.14,0.6,0.92,0.06,0.09,0.41,92,89,88,90,13,80,96,91,91,86,92,19,80,94,0.35,0.05,0.3,0.4,0.16,0.06,0.12,0.38,0.04,0.33,0.46,0.18,0.06,0.12,3
304,2021,AZ,Arizona State University CHP,58199,33.417222,-111.928333,NG,GAS,17.1,,141004,0.45,0.05,0.43,0.48,0.09,0.04,0.08,70,74,73,65,22,45,50,66,74,68,62,29,47,53,0.35,0.05,0.3,0.4,0.16,0.06,0.12,0.38,0.04,0.33,0.46,0.18,0.06,0.12,3
305,2021,AZ,Arizona Western College PV,57765,32.687778,-114.49611,SUN,SOLAR,4.7,,23821,0.42,0.04,0.35,0.49,0.27,0.06,0.16,66,72,62,66,85,62,73,62,71,59,62,77,62,71,0.35,0.05,0.3,0.4,0.16,0.06,0.12,0.38,0.04,0.33,0.46,0.18,0.06,0.12,3
306,2021,AZ,Arlington Valley Energy Facility,55282,33.3417,-112.8897,NG,GAS,713,,55,0.37,0.1,0.31,0.43,0.04,0.05,0.45,61,85,56,62,7,53,97,56,87,53,57,11,53,96,0.35,0.05,0.3,0.4,0.16,0.06,0.12,0.38,0.04,0.33,0.46,0.18,0.06,0.12,3
307,2021,AZ,Arlington Valley Solar Energy II,57680,33.305,-112.833888,SUN,SOLAR,129,,26,0.28,0.09,0.2,0.36,0.1,0.04,0.12,48,83,37,56,27,41,62,41,85,34,48,34,43,63,0.35,0.05,0.3,0.4,0.16,0.06,0.12,0.38,0.04,0.33,0.46,0.18,0.06,0.12,3
308,2021,AZ,Avalon Solar,59168,32.001389,-110.960556,SUN,SOLAR,29,,14908,0.34,0.01,0.24,0.44,0.09,0.11,0.04,57,59,44,63,22,87,29,51,54,42,58,30,87,33,0.35,0.05,0.3,0.4,0.16,0.06,0.12,0.38,0.04,0.33,0.46,0.18,0.06,0.12,3
309,2021,AZ,Avalon Solar II,60062,32.000854,-110.958427,SUN,SOLAR,16,,14908,0.34,0.01,0.24,0.44,0.09,0.11,0.04,57,59,44,63,22,87,29,51,54,42,58,30,87,33,0.35,0.05,0.3,0.4,0.16,0.06,0.12,0.38,0.04,0.33,0.46,0.18,0.06,0.12,3
310,2021,AZ,Avra Valley Solar,57657,32.371667,-111.282777,SUN,SOLAR,25,,1514,0.38,0,0.39,0.38,0.15,0.05,0.11,63,0,67,57,50,51,60,58,0,63,50,55,52,61,0.35,0.05,0.3,0.4,0.16,0.06,0.12,0.38,0.04,0.33,0.46,0.18,0.06,0.12,3
311,2021,AZ,AZ State University - Tempe Campus Solar,62643,33.424279,-111.92822,SUN,SOLAR,2.4,,134709,0.45,0.04,0.44,0.47,0.09,0.04,0.08,70,73,73,64,23,42,50,66,72,69,60,30,44,53,0.35,0.05,0.3,0.4,0.16,0.06,0.12,0.38,0.04,0.33,0.46,0.18,0.06,0.12,3
312,2021,AZ,Badger 1,58262,33.498003,-112.813458,SUN,SOLAR,14.8,,1006,0.37,0,0.39,0.35,0.18,0.04,0.25,61,0,67,55,60,42,86,55,0,63,46,61,44,84,0.35,0.05,0.3,0.4,0.16,0.06,0.12,0.38,0.04,0.33,0.46,0.18,0.06,0.12,3
313,2021,AZ,Black Mountain Generating Station,56482,35.0361,-114.1594,NG,GAS,121,,1805,0.51,0,0.55,0.47,0.14,0,0.24,75,0,84,65,44,0,86,73,0,82,61,50,0,83,0.35,0.05,0.3,0.4,0.16,0.06,0.12,0.38,0.04,0.33,0.46,0.18,0.06,0.12,3
314,2021,AZ,Black Mountain Solar LLC,58042,35.0227,-114.1627,SUN,SOLAR,9,,1663,0.51,0,0.55,0.47,0.14,0,0.24,75,0,84,65,44,0,86,73,0,82,61,50,0,83,0.35,0.05,0.3,0.4,0.16,0.06,0.12,0.38,0.04,0.33,0.46,0.18,0.06,0.12,3
315,2021,AZ,Bonnybrooke PV,60413,33.053,-111.34,SUN,SOLAR,50,,18215,0.36,0,0.45,0.65,0.11,0,0.35,60,0,74,75,29,0,94,55,0,70,75,37,17,92,0.35,0.05,0.3,0.4,0.16,0.06,0.12,0.38,0.04,0.33,0.46,0.18,0.06,0.12,3
316,2021,AZ,Broadway 2 - Tucson Phase II,64580,32.24817,-111.2611,SUN,SOLAR,3,,747,0.24,0,0.38,0.1,0.2,0.04,0.05,41,0,66,25,67,41,36,33,0,62,12,65,43,40,0.35,0.05,0.3,0.4,0.16,0.06,0.12,0.38,0.04,0.33,0.46,0.18,0.06,0.12,3
317,2021,AZ,Broadway 3 - Tucson Phase I,65185,32.24817,-111.26111,SUN,SOLAR,1,,747,0.24,0,0.38,0.1,0.2,0.04,0.05,41,0,66,25,67,41,36,33,0,62,12,65,43,40,0.35,0.05,0.3,0.4,0.16,0.06,0.12,0.38,0.04,0.33,0.46,0.18,0.06,0.12,3
318,2021,AZ,Buckeye Union HS District 201,58037,33.419167,-112.576111,SUN,SOLAR,3.3,,30392,0.44,0.03,0.29,0.59,0.11,0.08,0.14,69,69,53,72,31,73,69,65,68,51,71,39,72,68,0.35,0.05,0.3,0.4,0.16,0.06,0.12,0.38,0.04,0.33,0.46,0.18,0.06,0.12,3
319,2021,AZ,Canyon Del Oro High School Solar,60685,32.374,-110.974,SUN,SOLAR,4.4,,35200,0.2,0.01,0.17,0.24,0.33,0.03,0.03,33,57,30,44,92,29,23,25,51,28,30,83,33,26,0.35,0.05,0.3,0.4,0.16,0.06,0.12,0.38,0.04,0.33,0.46,0.18,0.06,0.12,3
320,2021,AZ,Chino Solar Valley,57560,34.71843,-112.42899,SUN,SOLAR,19,,7184,0.29,0.02,0.33,0.25,0.29,0.05,0.14,49,62,58,44,88,46,67,42,58,55,31,79,48,67,0.35,0.05,0.3,0.4,0.16,0.06,0.12,0.38,0.04,0.33,0.46,0.18,0.06,0.12,3
321,2021,AZ,Cholla,113,34.9394,-110.3033,SUB,COAL,425.9,Yes,1644,0.32,0.02,0.26,0.38,0.07,0.11,0.03,54,61,47,57,15,87,26,47,57,44,50,21,86,30,0.35,0.05,0.3,0.4,0.16,0.06,0.12,0.38,0.04,0.33,0.46,0.18,0.06,0.12,3
322,2021,AZ,Cogeneration 1,56229,32.229922,-110.952797,NG,GAS,9,,128105,0.53,0.06,0.54,0.54,0.13,0.04,0.15,77,77,83,69,38,37,70,74,78,80,67,45,39,69,0.35,0.05,0.3,0.4,0.16,0.06,0.12,0.38,0.04,0.33,0.46,0.18,0.06,0.12,3
323,2021,AZ,Cogeneration 2,59233,32.240833,-110.948333,NG,GAS,6,,138137,0.51,0.06,0.54,0.5,0.13,0.04,0.13,76,76,83,66,39,37,66,73,77,80,63,46,40,66,0.35,0.05,0.3,0.4,0.16,0.06,0.12,0.38,0.04,0.33,0.46,0.18,0.06,0.12,3
324,2021,AZ,Cogenra - TEP,58832,32.101944,-110.813333,SUN,SOLAR,1,,22595,0.29,0.01,0.2,0.39,0.15,0.07,0.05,50,57,36,58,50,68,34,43,51,34,51,55,67,38,0.35,0.05,0.3,0.4,0.16,0.06,0.12,0.38,0.04,0.33,0.46,0.18,0.06,0.12,3
325,2021,AZ,Coolidge Generating Station,56948,32.917399,-111.503327,NG,GAS,726,,1734,0.34,0,0.34,0.33,0.29,0.11,0.13,56,0,60,53,87,89,66,50,51,57,44,79,88,66,0.35,0.05,0.3,0.4,0.16,0.06,0.12,0.38,0.04,0.33,0.46,0.18,0.06,0.12,3
326,2021,AZ,Coronado Generating Station,6177,34.5789,-109.2708,RC,COAL,821.8,Yes,3,0.32,0,0.37,0.26,0.19,0.01,0.03,54,0,64,47,65,15,22,47,0,60,34,64,21,26,0.35,0.05,0.3,0.4,0.16,0.06,0.12,0.38,0.04,0.33,0.46,0.18,0.06,0.12,3
327,2021,AZ,Cotton Center Solar Hybrid,57561,33.034722,-112.661667,SUN,SOLAR,17,,35,0.76,0.17,0.67,0.85,0.02,0.1,0.29,93,91,92,86,3,84,90,92,93,90,88,4,83,88,0.35,0.05,0.3,0.4,0.16,0.06,0.12,0.38,0.04,0.33,0.46,0.18,0.06,0.12,3
328,2021,AZ,Crosscut,143,33.439375,-111.946052,WAT,HYDRO,3,,113589,0.44,0.05,0.42,0.47,0.08,0.04,0.08,69,74,71,64,19,37,51,65,74,66,60,26,40,53,0.35,0.05,0.3,0.4,0.16,0.06,0.12,0.38,0.04,0.33,0.46,0.18,0.06,0.12,3
329,2021,AZ,Davis Dam,152,35.197044,-114.570669,WAT,HYDRO,254.8,,3611,0.3,0.02,0.42,0.18,0.36,0.04,0.14,51,64,71,37,94,44,69,44,60,67,21,85,46,68,0.35,0.05,0.3,0.4,0.16,0.06,0.12,0.38,0.04,0.33,0.46,0.18,0.06,0.12,3
330,2021,AZ,Davis Monthan AFB (AZ) West Airfield,59779,32.17356,-110.899734,SUN,SOLAR,12.6,,70109,0.64,0.09,0.55,0.74,0.11,0.08,0.23,86,83,84,80,29,77,84,83,84,81,81,37,77,81,0.35,0.05,0.3,0.4,0.16,0.06,0.12,0.38,0.04,0.33,0.46,0.18,0.06,0.12,3
331,2021,AZ,De Moss Petrie Generating Station,124,32.252273,-110.992148,NG,GAS,85,,112373,0.56,0.06,0.56,0.58,0.13,0.04,0.15,80,78,85,71,38,40,72,77,79,83,70,46,42,70,0.35,0.05,0.3,0.4,0.16,0.06,0.12,0.38,0.04,0.33,0.46,0.18,0.06,0.12,3
332,2021,AZ,Desert Basin Generating Station,55129,32.9042,-111.7889,NG,GAS,646.1,,23007,0.57,0.05,0.49,0.66,0.14,0.07,0.2,80,76,79,76,45,67,81,78,77,75,76,51,66,78,0.35,0.05,0.3,0.4,0.16,0.06,0.12,0.38,0.04,0.33,0.46,0.18,0.06,0.12,3
333,2021,AZ,Desert Star Hybrid,59444,33.145,-112.66,SUN,SOLAR,10,,50,0.62,0.16,0.66,0.66,0.02,0.02,0.27,84,90,92,76,4,25,88,82,92,90,76,5,29,85,0.35,0.05,0.3,0.4,0.16,0.06,0.12,0.38,0.04,0.33,0.46,0.18,0.06,0.12,3
334,2021,AZ,Douglas,114,31.364122,-109.5538,DFO,OIL,26.1,,15926,0.73,0.2,0.55,0.92,0.14,0.09,0.25,92,93,84,90,46,81,87,90,95,81,92,52,81,84,0.35,0.05,0.3,0.4,0.16,0.06,0.12,0.38,0.04,0.33,0.46,0.18,0.06,0.12,3
335,2021,AZ,Dry Lake Wind LLC,57098,34.6596,-110.2842,WND,WIND,63,,0,N/A,N/A,N/A,N/A,N/A,N/A,N/A,N/A,N/A,N/A,N/A,N/A,N/A,N/A,N/A,N/A,N/A,N/A,N/A,N/A,N/A,0.35,0.05,0.3,0.4,0.16,0.06,0.12,0.38,0.04,0.33,0.46,0.18,0.06,0.12,3
336,2021,AZ,East Line Solar,62899,32.84703,-111.565072,SUN,SOLAR,100,,2783,0.46,0.04,0.38,0.54,0.18,0.08,0.11,71,70,66,69,62,74,61,67,69,62,67,62,74,62,0.35,0.05,0.3,0.4,0.16,0.06,0.12,0.38,0.04,0.33,0.46,0.18,0.06,0.12,3
337,2021,AZ,Estrella Mountain PV,60230,33.409803,-112.340297,SUN,SOLAR,1.8,,43503,0.59,0.07,0.39,0.8,0.08,0.08,0.24,82,79,66,83,20,73,85,80,81,63,85,27,72,82,0.35,0.05,0.3,0.4,0.16,0.06,0.12,0.38,0.04,0.33,0.46,0.18,0.06,0.12,3
338,2021,AZ,Foothills Solar Plant Hybrid,57997,32.64856,-114.428741,SUN,SOLAR,35,,30181,0.33,0.02,0.34,0.33,0.45,0.05,0.13,56,61,60,53,97,45,67,49,57,56,43,89,47,67,0.35,0.05,0.3,0.4,0.16,0.06,0.12,0.38,0.04,0.33,0.46,0.18,0.06,0.12,3
339,2021,AZ,Fort Huachuca Solar PV Project,58972,31.555278,-110.35,SUN,SOLAR,17.7,,7556,0.41,0.03,0.38,0.48,0.04,0.09,0.07,66,70,66,65,7,82,42,62,68,62,62,10,81,46,0.35,0.05,0.3,0.4,0.16,0.06,0.12,0.38,0.04,0.33,0.46,0.18,0.06,0.12,3
340,2021,AZ,FRB Solar Farm,57930,32.108147,-110.824662,SUN,SOLAR,1.9,,24702,0.33,0.01,0.21,0.45,0.15,0.06,0.06,56,60,39,63,48,62,40,49,56,37,58,53,62,44,0.35,0.05,0.3,0.4,0.16,0.06,0.12,0.38,0.04,0.33,0.46,0.18,0.06,0.12,3
341,2021,AZ,Gato Montes Solar LLC,58842,32.102778,-110.819722,SUN,SOLAR,5,,23059,0.31,0.01,0.2,0.41,0.15,0.07,0.05,52,58,37,60,50,65,36,45,52,34,55,55,65,40,0.35,0.05,0.3,0.4,0.16,0.06,0.12,0.38,0.04,0.33,0.46,0.18,0.06,0.12,3
342,2021,AZ,Gila Bend Hybrid,59020,32.940833,-112.881389,SUN,SOLAR,37.4,,161,0.76,0.17,0.67,0.85,0.02,0.1,0.29,93,91,92,86,3,84,90,92,93,90,88,4,83,88,0.35,0.05,0.3,0.4,0.16,0.06,0.12,0.38,0.04,0.33,0.46,0.18,0.06,0.12,3
343,2021,AZ,Gila River Power Block 2,60768,32.975,-112.694444,NG,GAS,619,,2372,0.69,0.24,0.56,0.81,0.1,0.07,0.29,89,94,85,84,28,65,90,87,96,83,85,36,64,87,0.35,0.05,0.3,0.4,0.16,0.06,0.12,0.38,0.04,0.33,0.46,0.18,0.06,0.12,3
344,2021,AZ,Gila River Power Station,55306,32.975,-112.694444,NG,GAS,1857,,2372,0.69,0.24,0.56,0.81,0.1,0.07,0.29,89,94,85,84,28,65,90,87,96,83,85,36,64,87,0.35,0.05,0.3,0.4,0.16,0.06,0.12,0.38,0.04,0.33,0.46,0.18,0.06,0.12,3
345,2021,AZ,Gilbert Solar Facility I LLC,58543,33.355862,-111.802355,SUN,SOLAR,2,,125393,0.3,0.02,0.21,0.39,0.11,0.07,0.07,52,64,39,59,30,65,43,44,61,37,53,38,65,46,0.35,0.05,0.3,0.4,0.16,0.06,0.12,0.38,0.04,0.33,0.46,0.18,0.06,0.12,3
346,2021,AZ,Glen Canyon Dam,153,36.936614,-111.483872,WAT,HYDRO,1312,,7258,0.54,0,0.44,0.64,0.1,0.05,0.12,78,0,73,75,25,47,64,75,0,69,75,33,48,65,0.35,0.05,0.3,0.4,0.16,0.06,0.12,0.38,0.04,0.33,0.46,0.18,0.06,0.12,3
347,2021,AZ,Gray Hawk Solar,61272,35.3635,-113.8978,SUN,SOLAR,55,,491,0.28,0,0.32,0.24,0.36,0.05,0.08,47,0,56,43,94,46,48,40,0,53,30,85,48,51,0.35,0.05,0.3,0.4,0.16,0.06,0.12,0.38,0.04,0.33,0.46,0.18,0.06,0.12,3
348,2021,AZ,Griffith Energy Project,55124,35.054029,-114.133272,NG,GAS,655,,152,0.51,0,0.55,0.47,0.14,0,0.24,75,0,84,65,44,0,86,73,0,82,61,50,0,83,0.35,0.05,0.3,0.4,0.16,0.06,0.12,0.38,0.04,0.33,0.46,0.18,0.06,0.12,3
349,2021,AZ,Headgate Rock,7179,34.168264,-114.277356,WAT,HYDRO,19.5,,5480,0.57,0.07,0.43,0.7,0.16,0.08,0.2,80,79,72,78,51,75,80,77,81,68,79,55,74,77,0.35,0.05,0.3,0.4,0.16,0.06,0.12,0.38,0.04,0.33,0.46,0.18,0.06,0.12,3
350,2021,AZ,Hoover Dam (AZ),8902,36.01551,-114.738006,WAT,HYDRO,1039.4,,0,N/A,N/A,N/A,N/A,N/A,N/A,N/A,N/A,N/A,N/A,N/A,N/A,N/A,N/A,N/A,N/A,N/A,N/A,N/A,N/A,N/A,0.35,0.05,0.3,0.4,0.16,0.06,0.12,0.38,0.04,0.33,0.46,0.18,0.06,0.12,3
351,2021,AZ,Horse Mesa,145,33.5907,-111.344,WAT,HYDRO,129.5,,0,N/A,N/A,N/A,N/A,N/A,N/A,N/A,N/A,N/A,N/A,N/A,N/A,N/A,N/A,N/A,N/A,N/A,N/A,N/A,N/A,N/A,0.35,0.05,0.3,0.4,0.16,0.06,0.12,0.38,0.04,0.33,0.46,0.18,0.06,0.12,3
352,2021,AZ,Hyder II Hybrid,58383,33.027,-113.3489,SUN,SOLAR,14,,56,0.53,0.18,0.47,0.6,0.17,0.04,0.31,77,91,76,73,55,40,91,74,93,72,72,58,42,89,0.35,0.05,0.3,0.4,0.16,0.06,0.12,0.38,0.04,0.33,0.46,0.18,0.06,0.12,3
353,2021,AZ,Hyder Solar Hybrid,57563,33.02566,-113.34397,SUN,SOLAR,32,,76,0.55,0.18,0.48,0.61,0.18,0.04,0.29,78,92,78,74,60,38,90,76,94,74,73,61,40,87,0.35,0.05,0.3,0.4,0.16,0.06,0.12,0.38,0.04,0.33,0.46,0.18,0.06,0.12,3
354,2021,AZ,Intel - Ocotillo Campus Solar,60822,33.243261,-111.892354,SUN,SOLAR,4.2,,42893,0.23,0.02,0.14,0.31,0.31,0.04,0.03,38,63,25,51,90,37,22,30,59,23,41,81,39,25,0.35,0.05,0.3,0.4,0.16,0.06,0.12,0.38,0.04,0.33,0.46,0.18,0.06,0.12,3
355,2021,AZ,IRC Generator Facility,56899,36.9708,-112.5264,DFO,OIL,3,,1200,0.34,0,0.43,0.25,0.16,0.02,0.19,57,0,73,45,53,24,79,51,0,68,32,57,29,76,0.35,0.05,0.3,0.4,0.16,0.06,0.12,0.38,0.04,0.33,0.46,0.18,0.06,0.12,3
356,2021,AZ,Iron Horse Battery Storage Hybrid,60996,32.098492,-110.819119,SUN,SOLAR,12,,22276,0.3,0.01,0.2,0.4,0.16,0.07,0.06,51,57,36,59,51,65,37,44,52,34,54,55,65,42,0.35,0.05,0.3,0.4,0.16,0.06,0.12,0.38,0.04,0.33,0.46,0.18,0.06,0.12,3
357,2021,AZ,Irvington Generating Station,126,32.16,-110.9047,NG,GAS,528.9,,61594,0.67,0.11,0.53,0.83,0.09,0.09,0.27,88,85,82,85,23,80,88,86,87,79,86,30,80,85,0.35,0.05,0.3,0.4,0.16,0.06,0.12,0.38,0.04,0.33,0.46,0.18,0.06,0.12,3
358,2021,AZ,Jacobson 5 MW Solar,60603,35.304528,-114.01183,SUN,SOLAR,4.4,,6374,0.25,0,0.38,0.12,0.28,0.03,0.15,42,0,65,27,85,29,70,34,0,62,13,77,33,69,0.35,0.05,0.3,0.4,0.16,0.06,0.12,0.38,0.04,0.33,0.46,0.18,0.06,0.12,3
359,2021,AZ,Jewish Community Center PV,58292,33.603056,-111.924722,SUN,SOLAR,1.1,,72244,0.16,0.01,0.14,0.18,0.24,0.05,0.03,24,59,25,36,78,47,22,17,54,23,21,72,49,26,0.35,0.05,0.3,0.4,0.16,0.06,0.12,0.38,0.04,0.33,0.46,0.18,0.06,0.12,3
360,2021,AZ,Kayenta Solar Project,61268,36.771944,-110.263889,SUN,SOLAR,55.3,,527,0.83,0.05,0.66,1,0.14,0.05,0.21,96,75,91,97,42,53,81,96,76,90,98,49,54,78,0.35,0.05,0.3,0.4,0.16,0.06,0.12,0.38,0.04,0.33,0.46,0.18,0.06,0.12,3
361,2021,AZ,Kingman 1,57775,35.145833,-114.0675,WND,WIND,10.5,,737,0.39,0.03,0.43,0.33,0.18,0.03,0.29,63,69,72,53,60,26,90,58,68,68,43,61,30,87,0.35,0.05,0.3,0.4,0.16,0.06,0.12,0.38,0.04,0.33,0.46,0.18,0.06,0.12,3
362,2021,AZ,Kyrene Generating Station,147,33.3556,-111.9353,NG,GAS,573.7,,133293,0.35,0.03,0.25,0.45,0.13,0.06,0.06,58,68,45,63,40,57,40,52,67,43,59,47,58,43,0.35,0.05,0.3,0.4,0.16,0.06,0.12,0.38,0.04,0.33,0.46,0.18,0.06,0.12,3
363,2021,AZ,La Senita,57556,35.241675,-114.004591,SUN,SOLAR,1,,34613,0.31,0,0.43,0.19,0.26,0.06,0.13,53,0,72,38,82,56,66,46,0,68,23,75,57,66,0.35,0.05,0.3,0.4,0.16,0.06,0.12,0.38,0.04,0.33,0.46,0.18,0.06,0.12,3
364,2021,AZ,Lake Pleasant WTP,58539,33.820556,-112.24,SUN,SOLAR,6.5,,18,0.23,0,0.47,0,0,0,0,39,0,76,0,0,0,0,31,0,72,0,0,0,0,0.35,0.05,0.3,0.4,0.16,0.06,0.12,0.38,0.04,0.33,0.46,0.18,0.06,0.12,3
365,2021,AZ,Luke Solar,57324,33.526111,-112.37944,SUN,SOLAR,15,,37902,0.34,0.03,0.21,0.47,0.16,0.06,0.08,57,67,38,65,54,59,49,50,64,36,61,57,59,52,0.35,0.05,0.3,0.4,0.16,0.06,0.12,0.38,0.04,0.33,0.46,0.18,0.06,0.12,3
366,2021,AZ,Macys Goodyear,57673,33.409063,-112.414596,SUN,SOLAR,3.5,,29498,0.43,0.02,0.26,0.6,0.09,0.08,0.08,67,66,47,72,22,72,46,63,63,44,72,30,72,49,0.35,0.05,0.3,0.4,0.16,0.06,0.12,0.38,0.04,0.33,0.46,0.18,0.06,0.12,3
367,2021,AZ,Mesa Carport PV,64404,33.347,-111.602,SUN,SOLAR,4.6,,51403,0.2,0.01,0.13,0.26,0.17,0.06,0.04,31,57,23,46,56,63,31,24,51,21,34,59,62,35,0.35,0.05,0.3,0.4,0.16,0.06,0.12,0.38,0.04,0.33,0.46,0.18,0.06,0.12,3
368,2021,AZ,Mesquite Generating Station,55481,33.345,-112.864167,NG,GAS,1383.2,,89,0.38,0.11,0.32,0.44,0.05,0.05,0.45,62,86,58,62,8,51,97,57,88,55,58,12,52,96,0.35,0.05,0.3,0.4,0.16,0.06,0.12,0.38,0.04,0.33,0.46,0.18,0.06,0.12,3
369,2021,AZ,Mesquite Solar 1,57707,33.341833,-112.904028,SUN,SOLAR,170,,60,0.37,0.11,0.31,0.44,0.04,0.05,0.46,61,85,56,62,7,53,97,56,87,53,57,10,54,96,0.35,0.05,0.3,0.4,0.16,0.06,0.12,0.38,0.04,0.33,0.46,0.18,0.06,0.12,3
370,2021,AZ,Mesquite Solar 2 LLC,60307,33.332777,-112.911388,SUN,SOLAR,100,,60,0.37,0.11,0.31,0.44,0.04,0.05,0.46,61,85,56,62,7,53,97,56,87,53,57,10,54,96,0.35,0.05,0.3,0.4,0.16,0.06,0.12,0.38,0.04,0.33,0.46,0.18,0.06,0.12,3
371,2021,AZ,Mesquite Solar 3 LLC,60308,33.347583,-112.936805,SUN,SOLAR,150,,41,0.37,0.11,0.31,0.44,0.03,0.06,0.48,62,86,56,62,4,57,98,56,88,53,58,6,58,97,0.35,0.05,0.3,0.4,0.16,0.06,0.12,0.38,0.04,0.33,0.46,0.18,0.06,0.12,3
372,2021,AZ,Mohave County Wind Farm,63114,35.791142,-114.504504,WND,WIND,350,,0,N/A,N/A,N/A,N/A,N/A,N/A,N/A,N/A,N/A,N/A,N/A,N/A,N/A,N/A,N/A,N/A,N/A,N/A,N/A,N/A,N/A,0.35,0.05,0.3,0.4,0.16,0.06,0.12,0.38,0.04,0.33,0.46,0.18,0.06,0.12,3
373,2021,AZ,Mohave Electric at Fort Mohave,59819,34.9843,-114.5565,SUN,SOLAR,4.4,,10965,0.21,0.01,0.19,0.23,0.36,0.04,0.1,35,57,35,42,94,38,56,27,51,33,29,85,41,58,0.35,0.05,0.3,0.4,0.16,0.06,0.12,0.38,0.04,0.33,0.46,0.18,0.06,0.12,3
374,2021,AZ,Mohave Electric Cooperative at Joy Lane,63554,34.9843,-114.5565,SUN,SOLAR,10,,10965,0.21,0.01,0.19,0.23,0.36,0.04,0.1,35,57,35,42,94,38,56,27,51,33,29,85,41,58,0.35,0.05,0.3,0.4,0.16,0.06,0.12,0.38,0.04,0.33,0.46,0.18,0.06,0.12,3
375,2021,AZ,Mormon Flat,148,33.5536,-111.4431,WAT,HYDRO,63.5,,0,N/A,N/A,N/A,N/A,N/A,N/A,N/A,N/A,N/A,N/A,N/A,N/A,N/A,N/A,N/A,N/A,N/A,N/A,N/A,N/A,N/A,0.35,0.05,0.3,0.4,0.16,0.06,0.12,0.38,0.04,0.33,0.46,0.18,0.06,0.12,3
376,2021,AZ,New Harquahala Generating Company,55372,33.47596,-113.113434,NG,GAS,1277.1,,101,0.46,0.16,0.45,0.47,0.16,0.01,0.32,71,91,75,64,52,12,92,67,93,71,61,56,17,90,0.35,0.05,0.3,0.4,0.16,0.06,0.12,0.38,0.04,0.33,0.46,0.18,0.06,0.12,3
377,2021,AZ,North Loop,6088,32.401,-111.1262,NG,GAS,107.8,,17548,0.28,0.02,0.14,0.42,0.2,0.07,0.04,48,62,24,61,69,64,29,40,58,22,56,66,64,34,0.35,0.05,0.3,0.4,0.16,0.06,0.12,0.38,0.04,0.33,0.46,0.18,0.06,0.12,3
378,2021,AZ,Northwest Regional,57403,33.681944,-112.476666,LFG,BIOMASS,3.2,,4735,0.2,0,0.21,0.19,0.39,0.01,0.11,32,0,38,38,95,13,59,25,0,36,23,87,18,60,0.35,0.05,0.3,0.4,0.16,0.06,0.12,0.38,0.04,0.33,0.46,0.18,0.06,0.12,3
379,2021,AZ,Novo BioPower Plant,56616,34.503158,-110.334953,WDS,BIOMASS,27.2,,19,0.41,0.03,0.6,0.22,0.13,0.09,0.12,66,69,88,42,39,79,62,62,67,86,27,46,78,63,0.35,0.05,0.3,0.4,0.16,0.06,0.12,0.38,0.04,0.33,0.46,0.18,0.06,0.12,3
380,2021,AZ,Ocotillo Power Plant,116,33.4225,-111.9122,NG,GAS,915.7,,151328,0.45,0.04,0.44,0.47,0.1,0.04,0.09,70,73,74,64,26,44,51,66,73,70,61,34,46,53,0.35,0.05,0.3,0.4,0.16,0.06,0.12,0.38,0.04,0.33,0.46,0.18,0.06,0.12,3
381,2021,AZ,OE_AZ1,63349,33.776667,-113.656111,SUN,SOLAR,32.5,,725,0.26,0.03,0.4,0.12,0.78,0,0.13,44,68,68,28,99,0,66,37,67,65,14,97,0,66,0.35,0.05,0.3,0.4,0.16,0.06,0.12,0.38,0.04,0.33,0.46,0.18,0.06,0.12,3
382,2021,AZ,Palo Verde,6008,33.3881,-112.8617,NUC,NUCLEAR,4209.6,,1195,0.23,0.02,0.18,0.28,0.08,0.04,0.19,39,62,33,48,19,40,79,31,58,31,37,26,42,76,0.35,0.05,0.3,0.4,0.16,0.06,0.12,0.38,0.04,0.33,0.46,0.18,0.06,0.12,3
383,2021,AZ,Paloma Solar Hybrid,57562,33.021111,-112.661389,SUN,SOLAR,17.6,,32,0.76,0.17,0.67,0.85,0.02,0.1,0.29,93,91,92,86,3,84,90,92,93,90,88,4,83,88,0.35,0.05,0.3,0.4,0.16,0.06,0.12,0.38,0.04,0.33,0.46,0.18,0.06,0.12,3
384,2021,AZ,Paradise Valley H.S. PV,58293,33.6416,-111.9997,SUN,SOLAR,1.3,,136565,0.31,0.04,0.26,0.35,0.15,0.06,0.09,53,73,48,55,47,59,53,45,72,46,47,53,60,55,0.35,0.05,0.3,0.4,0.16,0.06,0.12,0.38,0.04,0.33,0.46,0.18,0.06,0.12,3
385,2021,AZ,Perrin Ranch Wind LLC,58155,35.415556,-112.271111,WND,WIND,99.2,,0,N/A,N/A,N/A,N/A,N/A,N/A,N/A,N/A,N/A,N/A,N/A,N/A,N/A,N/A,N/A,N/A,N/A,N/A,N/A,N/A,N/A,0.35,0.05,0.3,0.4,0.16,0.06,0.12,0.38,0.04,0.33,0.46,0.18,0.06,0.12,3
386,2021,AZ,Phoenix Airport East Economy Lot,58708,33.4345,-111.9842,SUN,SOLAR,1.1,,80881,0.58,0.06,0.5,0.67,0.06,0.06,0.2,81,77,79,76,11,60,81,79,78,76,77,16,60,78,0.35,0.05,0.3,0.4,0.16,0.06,0.12,0.38,0.04,0.33,0.46,0.18,0.06,0.12,3
387,2021,AZ,Phoenix Airport Rental Car Center,58709,33.43042,-112.04484,SUN,SOLAR,1.6,,98343,0.69,0.09,0.57,0.8,0.09,0.07,0.31,89,83,86,83,22,70,91,86,85,83,85,29,70,89,0.35,0.05,0.3,0.4,0.16,0.06,0.12,0.38,0.04,0.33,0.46,0.18,0.06,0.12,3
388,2021,AZ,Picture Rocks Solar LLC,58486,32.369722,-111.242778,SUN,SOLAR,20,,2123,0.3,0,0.39,0.22,0.23,0.04,0.12,52,0,67,41,76,38,63,44,0,63,27,71,41,64,0.35,0.05,0.3,0.4,0.16,0.06,0.12,0.38,0.04,0.33,0.46,0.18,0.06,0.12,3
389,2021,AZ,Pima Community College,62075,32.166494,-110.816669,SUN,SOLAR,1.1,,58472,0.4,0.02,0.36,0.44,0.18,0.07,0.08,64,64,63,62,59,66,47,60,61,60,58,61,66,50,0.35,0.05,0.3,0.4,0.16,0.06,0.12,0.38,0.04,0.33,0.46,0.18,0.06,0.12,3
390,2021,AZ,Pima Community College - East Campus,61104,32.146142,-110.990639,SUN,SOLAR,1.3,,99950,0.72,0.13,0.55,0.9,0.13,0.07,0.29,91,88,84,88,40,71,90,90,90,81,91,47,71,87,0.35,0.05,0.3,0.4,0.16,0.06,0.12,0.38,0.04,0.33,0.46,0.18,0.06,0.12,3
391,2021,AZ,Pima Community College NW,63531,32.343491,-111.02786,SUN,SOLAR,1.3,,65948,0.32,0.02,0.26,0.38,0.2,0.05,0.06,54,61,47,58,68,53,42,48,57,45,51,66,54,45,0.35,0.05,0.3,0.4,0.16,0.06,0.12,0.38,0.04,0.33,0.46,0.18,0.06,0.12,3
392,2021,AZ,Pima Energy Storage System,61197,32.251647,-110.991333,MWH,OTHF,10,,113134,0.56,0.06,0.56,0.58,0.13,0.04,0.15,80,78,85,71,39,40,71,77,79,83,70,46,42,70,0.35,0.05,0.3,0.4,0.16,0.06,0.12,0.38,0.04,0.33,0.46,0.18,0.06,0.12,3
393,2021,AZ,Pinal Central Energy Center Hybrid,61678,32.875697,-111.551111,SUN,SOLAR,30,,2145,0.37,0.02,0.36,0.38,0.24,0.09,0.11,61,62,62,58,79,81,59,55,58,59,51,73,80,60,0.35,0.05,0.3,0.4,0.16,0.06,0.12,0.38,0.04,0.33,0.46,0.18,0.06,0.12,3
394,2021,AZ,Poseidon Solar LLC,57318,33.160601,-111.484011,SUN,SOLAR,20,,8186,0.38,0.01,0.32,0.45,0.12,0.08,0.11,63,61,56,63,36,71,59,58,56,54,59,44,71,60,0.35,0.05,0.3,0.4,0.16,0.06,0.12,0.38,0.04,0.33,0.46,0.18,0.06,0.12,3
395,2021,AZ,Poseidon Wind LLC,57379,34.6062,-110.1734,WND,WIND,65.1,,0,N/A,N/A,N/A,N/A,N/A,N/A,N/A,N/A,N/A,N/A,N/A,N/A,N/A,N/A,N/A,N/A,N/A,N/A,N/A,N/A,N/A,0.35,0.05,0.3,0.4,0.16,0.06,0.12,0.38,0.04,0.33,0.46,0.18,0.06,0.12,3
396,2021,AZ,Prairie Fire,58171,32.116389,-110.82,SUN,SOLAR,4.5,,24382,0.32,0.01,0.21,0.44,0.15,0.06,0.05,54,59,38,62,48,64,36,48,53,36,57,53,63,40,0.35,0.05,0.3,0.4,0.16,0.06,0.12,0.38,0.04,0.33,0.46,0.18,0.06,0.12,3
397,2021,AZ,Prescott Airport,56228,34.6584,-112.4008,SUN,SOLAR,3,,1157,0.13,0,0.21,0.05,0.4,0,0.08,17,0,39,14,95,0,48,11,0,37,6,87,0,50,0.35,0.05,0.3,0.4,0.16,0.06,0.12,0.38,0.04,0.33,0.46,0.18,0.06,0.12,3
398,2021,AZ,Prescott Solar Plant,58147,34.649444,-112.4275,SUN,SOLAR,10.8,,4218,0.15,0,0.19,0.12,0.32,0,0.04,21,0,34,27,91,0,30,15,0,32,13,82,0,34,0.35,0.05,0.3,0.4,0.16,0.06,0.12,0.38,0.04,0.33,0.46,0.18,0.06,0.12,3
399,2021,AZ,Punkin Center Battery Storage,61913,33.87581,-111.31356,MWH,OTHF,2,,1104,0.22,0,0.42,0.02,0.51,0,0.19,36,0,71,7,98,0,78,28,0,67,3,91,0,76,0.35,0.05,0.3,0.4,0.16,0.06,0.12,0.38,0.04,0.33,0.46,0.18,0.06,0.12,3
400,2021,AZ,Queen Creek Solar Farm,57883,33.2675,-111.612222,SUN,SOLAR,19,,35892,0.2,0,0.16,0.23,0.12,0.07,0.03,32,0,29,43,37,65,26,24,51,27,29,45,65,30,0.35,0.05,0.3,0.4,0.16,0.06,0.12,0.38,0.04,0.33,0.46,0.18,0.06,0.12,3
401,2021,AZ,RE Ajo 1 LLC,57795,32.367013,-112.831401,SUN,SOLAR,4.5,,2245,0.5,0.03,0.5,0.51,0.38,0.02,0.17,74,68,79,67,95,19,74,71,66,76,64,86,24,72,0.35,0.05,0.3,0.4,0.16,0.06,0.12,0.38,0.04,0.33,0.46,0.18,0.06,0.12,3
402,2021,AZ,RE Bagdad Solar I LLC,57790,34.585833,-113.177222,SUN,SOLAR,14.9,,2431,0.38,0.03,0.32,0.45,0.05,0.19,0.01,62,67,57,63,9,98,10,58,65,54,58,13,98,11,0.35,0.05,0.3,0.4,0.16,0.06,0.12,0.38,0.04,0.33,0.46,0.18,0.06,0.12,3
403,2021,AZ,RE Gillespie 1 LLC,58501,33.026389,-112.665833,SUN,SOLAR,15,,32,0.76,0.17,0.67,0.85,0.02,0.1,0.29,93,91,92,86,3,84,90,92,93,90,88,4,83,88,0.35,0.05,0.3,0.4,0.16,0.06,0.12,0.38,0.04,0.33,0.46,0.18,0.06,0.12,3
404,2021,AZ,Red Horse 2,58833,32.286111,-110.088056,SUN,SOLAR,81,,0,N/A,N/A,N/A,N/A,N/A,N/A,N/A,N/A,N/A,N/A,N/A,N/A,N/A,N/A,N/A,N/A,N/A,N/A,N/A,N/A,N/A,0.35,0.05,0.3,0.4,0.16,0.06,0.12,0.38,0.04,0.33,0.46,0.18,0.06,0.12,3
405,2021,AZ,Red Horse III,60285,32.13597,-110.05129,SUN,SOLAR,30,,0,N/A,N/A,N/A,N/A,N/A,N/A,N/A,N/A,N/A,N/A,N/A,N/A,N/A,N/A,N/A,N/A,N/A,N/A,N/A,N/A,N/A,0.35,0.05,0.3,0.4,0.16,0.06,0.12,0.38,0.04,0.33,0.46,0.18,0.06,0.12,3
406,2021,AZ,Red Rock,60467,32.551026,-111.289232,SUN,SOLAR,40,,1337,0.3,0.02,0.29,0.31,0.13,0.09,0.07,51,64,52,51,38,82,44,44,61,49,41,46,82,47,0.35,0.05,0.3,0.4,0.16,0.06,0.12,0.38,0.04,0.33,0.46,0.18,0.06,0.12,3
407,2021,AZ,Redhawk Generating Facility,55455,33.334562,-112.840641,NG,GAS,1140.3,,251,0.37,0.08,0.32,0.43,0.07,0.04,0.4,61,82,58,61,16,45,96,56,84,55,56,23,46,94,0.35,0.05,0.3,0.4,0.16,0.06,0.12,0.38,0.04,0.33,0.46,0.18,0.06,0.12,3
408,2021,AZ,Rio Rico Solar,59044,31.5,-111.008056,SUN,SOLAR,6,,9603,0.71,0.1,0.54,0.87,0.13,0.09,0.17,90,85,84,87,39,81,75,89,87,81,89,46,81,73,0.35,0.05,0.3,0.4,0.16,0.06,0.12,0.38,0.04,0.33,0.46,0.18,0.06,0.12,3
409,2021,AZ,Roger Road WWTP,57524,32.2894,-111.0331,SUN,SOLAR,1.1,,57712,0.48,0.04,0.43,0.52,0.17,0.05,0.13,72,73,72,68,58,51,65,69,73,68,66,60,52,66,0.35,0.05,0.3,0.4,0.16,0.06,0.12,0.38,0.04,0.33,0.46,0.18,0.06,0.12,3
410,2021,AZ,Roosevelt,149,33.671104,-111.161786,WAT,HYDRO,36,,28,0.51,0.01,0.6,0.42,0.36,0.03,0.24,75,57,88,61,94,34,86,72,52,86,55,85,37,83,0.35,0.05,0.3,0.4,0.16,0.06,0.12,0.38,0.04,0.33,0.46,0.18,0.06,0.12,3
411,2021,AZ,Saddle Mountain Solar I,58213,33.378333,-113.180833,SUN,SOLAR,15,,174,0.38,0.12,0.32,0.44,0.03,0.05,0.47,62,87,57,62,6,54,98,57,89,54,58,8,54,97,0.35,0.05,0.3,0.4,0.16,0.06,0.12,0.38,0.04,0.33,0.46,0.18,0.06,0.12,3
412,2021,AZ,Saint Solar,63476,32.866276,-111.502402,SUN,SOLAR,100,,739,0.33,0,0.35,0.31,0.29,0.12,0.13,55,0,62,51,87,90,66,49,0,58,40,79,89,66,0.35,0.05,0.3,0.4,0.16,0.06,0.12,0.38,0.04,0.33,0.46,0.18,0.06,0.12,3
413,2021,AZ,Sandstone Solar,59634,33.035556,-111.430278,SUN,SOLAR,45,,6334,0.4,0,0.35,0.45,0.19,0.06,0.11,64,0,61,63,64,61,61,60,0,58,58,64,61,62,0.35,0.05,0.3,0.4,0.16,0.06,0.12,0.38,0.04,0.33,0.46,0.18,0.06,0.12,3
414,2021,AZ,Santan,8068,33.3325,-111.7503,NG,GAS,1326,,114915,0.22,0.01,0.13,0.3,0.09,0.07,0.04,36,60,23,50,23,70,29,28,55,21,39,30,69,33,0.35,0.05,0.3,0.4,0.16,0.06,0.12,0.38,0.04,0.33,0.46,0.18,0.06,0.12,3
415,2021,AZ,Solana Generating Station,56812,32.922294,-112.95594,SUN,SOLAR,280,,2,0.76,0.17,0.67,0.85,0.02,0.1,0.29,93,91,92,86,3,84,90,92,93,90,88,4,83,88,0.35,0.05,0.3,0.4,0.16,0.06,0.12,0.38,0.04,0.33,0.46,0.18,0.06,0.12,3
416,2021,AZ,South Consolidated,100,33.466477,-111.781064,WAT,HYDRO,1.4,,59121,0.29,0.02,0.25,0.32,0.14,0.07,0.07,49,64,46,52,44,68,46,42,61,43,43,50,68,49,0.35,0.05,0.3,0.4,0.16,0.06,0.12,0.38,0.04,0.33,0.46,0.18,0.06,0.12,3
417,2021,AZ,South Point Energy Center LLC,55177,34.8678,-114.5317,NG,GAS,708,,964,0.35,0,0.44,0.25,0.27,0.04,0.11,58,0,74,45,85,44,59,51,0,69,32,77,46,60,0.35,0.05,0.3,0.4,0.16,0.06,0.12,0.38,0.04,0.33,0.46,0.18,0.06,0.12,3
418,2021,AZ,Springerville Generating Station,8223,34.3186,-109.1639,RC,COAL,1779.2,Yes,7,0.45,0,0.44,0.47,0.09,0.04,0.2,70,0,73,65,22,35,80,66,0,68,61,29,38,77,0.35,0.05,0.3,0.4,0.16,0.06,0.12,0.38,0.04,0.33,0.46,0.18,0.06,0.12,3
419,2021,AZ,Stewart Mountain,150,33.5661,-111.536,WAT,HYDRO,13,,37,0.03,0,0.05,0.01,0.33,0.03,0.02,0,0,7,5,92,31,19,0,0,6,0,83,34,22,0.35,0.05,0.3,0.4,0.16,0.06,0.12,0.38,0.04,0.33,0.46,0.18,0.06,0.12,3
420,2021,AZ,Sulphur Springs,60381,32.0628,-109.919283,SUN,SOLAR,20,,273,0.31,0.06,0.44,0.18,0.35,0.04,0.11,52,78,73,36,93,35,60,45,79,69,21,85,38,61,0.35,0.05,0.3,0.4,0.16,0.06,0.12,0.38,0.04,0.33,0.46,0.18,0.06,0.12,3
421,2021,AZ,Sun Streams 2,63440,33.320406,-112.816771,SUN,SOLAR,150,,400,0.33,0.09,0.27,0.4,0.08,0.04,0.28,56,83,49,59,19,44,90,50,84,46,53,26,46,87,0.35,0.05,0.3,0.4,0.16,0.06,0.12,0.38,0.04,0.33,0.46,0.18,0.06,0.12,3
422,2021,AZ,Sun Streams LLC,60827,33.34884,-112.8348,SUN,SOLAR,160,,392,0.37,0.07,0.32,0.41,0.09,0.04,0.35,61,79,57,60,25,39,94,55,80,55,55,32,41,92,0.35,0.05,0.3,0.4,0.16,0.06,0.12,0.38,0.04,0.33,0.46,0.18,0.06,0.12,3
423,2021,AZ,Sundance Power Plant,55522,32.9285,-111.5899,NG,GAS,605,,1377,0.41,0.03,0.35,0.47,0.19,0.07,0.08,66,70,62,64,63,64,49,62,69,59,61,63,64,52,0.35,0.05,0.3,0.4,0.16,0.06,0.12,0.38,0.04,0.33,0.46,0.18,0.06,0.12,3
424,2021,AZ,T0588 Phoenix - AZ,61199,33.447225,-112.217664,SUN,SOLAR,1.2,,131651,0.69,0.1,0.49,0.89,0.06,0.09,0.32,89,84,79,88,11,81,92,87,86,76,90,16,81,90,0.35,0.05,0.3,0.4,0.16,0.06,0.12,0.38,0.04,0.33,0.46,0.18,0.06,0.12,3
425,2021,AZ,Tech Park Solar,59455,32.097884,-110.815696,SUN,SOLAR,5,,22029,0.29,0.01,0.2,0.39,0.16,0.07,0.05,50,57,36,58,51,68,34,43,51,34,51,55,67,38,0.35,0.05,0.3,0.4,0.16,0.06,0.12,0.38,0.04,0.33,0.46,0.18,0.06,0.12,3
426,2021,AZ,UASTP I,57392,32.096973,-110.8106,SUN,SOLAR,1.2,,21883,0.29,0.01,0.2,0.38,0.16,0.07,0.05,49,57,36,58,51,69,32,42,51,34,51,55,68,36,0.35,0.05,0.3,0.4,0.16,0.06,0.12,0.38,0.04,0.33,0.46,0.18,0.06,0.12,3
427,2021,AZ,Union HS at Casa Grande,58516,32.936944,-111.738611,SUN,SOLAR,1.6,,29308,0.46,0.04,0.36,0.56,0.15,0.07,0.15,70,70,62,70,48,65,70,67,69,59,68,53,65,69,0.35,0.05,0.3,0.4,0.16,0.06,0.12,0.38,0.04,0.33,0.46,0.18,0.06,0.12,3
428,2021,AZ,University of Arizona - Biosphere 2,54594,32.578011,-110.852608,NG,GAS,3.1,,1981,0.06,0,0.09,0.02,0.88,0,0.01,3,0,16,7,99,0,10,2,0,13,3,98,0,12,0.35,0.05,0.3,0.4,0.16,0.06,0.12,0.38,0.04,0.33,0.46,0.18,0.06,0.12,3
429,2021,AZ,Valencia,6515,31.363472,-110.931343,NG,GAS,108,,20600,0.79,0.37,0.61,0.97,0.18,0.06,0.33,95,97,88,94,62,56,93,94,99,86,96,62,57,90,0.35,0.05,0.3,0.4,0.16,0.06,0.12,0.38,0.04,0.33,0.46,0.18,0.06,0.12,3
430,2021,AZ,Valencia Solar,59454,32.145833,-110.866944,SUN,SOLAR,10,,39718,0.52,0.06,0.4,0.65,0.08,0.09,0.16,76,78,68,76,18,80,72,73,79,64,76,25,79,71,0.35,0.05,0.3,0.4,0.16,0.06,0.12,0.38,0.04,0.33,0.46,0.18,0.06,0.12,3
431,2021,AZ,Vista Grande HS at Casa Grande,58517,32.891389,-111.713056,SUN,SOLAR,1.4,,45707,0.49,0.03,0.41,0.57,0.2,0.06,0.16,73,70,69,71,68,63,72,70,69,65,69,66,62,71,0.35,0.05,0.3,0.4,0.16,0.06,0.12,0.38,0.04,0.33,0.46,0.18,0.06,0.12,3
432,2021,AZ,Waddell,7164,33.8447,-112.2714,WAT,HYDRO,40,,63,0.15,0,0.3,0,0,0,0,21,0,54,0,0,0,0,14,0,51,0,0,0,0,0.35,0.05,0.3,0.4,0.16,0.06,0.12,0.38,0.04,0.33,0.46,0.18,0.06,0.12,3
433,2021,AZ,Walmart Casa Grande,57939,32.866837,-111.771751,SUN,SOLAR,2,,26343,0.59,0.05,0.51,0.67,0.15,0.07,0.21,82,76,81,77,46,69,82,80,76,77,77,52,69,79,0.35,0.05,0.3,0.4,0.16,0.06,0.12,0.38,0.04,0.33,0.46,0.18,0.06,0.12,3
434,2021,AZ,Western Renewable Energy,56358,34.093006,-109.289979,WDS,BIOMASS,3,,7007,0.3,0,0.37,0.22,0.24,0.1,0.09,51,0,64,42,78,83,51,43,0,60,28,72,82,54,0.35,0.05,0.3,0.4,0.16,0.06,0.12,0.38,0.04,0.33,0.46,0.18,0.06,0.12,3
435,2021,AZ,Wilmot Energy Center LLC,64426,32.043502,-110.892676,SUN,SOLAR,160,,7047,0.41,0.22,0.65,0.73,0.04,0.01,0.35,66,94,91,80,7,14,94,62,96,89,81,10,20,92,0.35,0.05,0.3,0.4,0.16,0.06,0.12,0.38,0.04,0.33,0.46,0.18,0.06,0.12,3
436,2021,AZ,Yucca Power Plant,120,32.7214,-114.7106,NG,GAS,425,,14730,0.59,0.09,0.4,0.77,0.16,0.07,0.33,81,83,69,82,53,65,93,79,84,65,83,57,65,90,0.35,0.05,0.3,0.4,0.16,0.06,0.12,0.38,0.04,0.33,0.46,0.18,0.06,0.12,3
437,2021,AZ,Yuma Cogeneration Associates,54694,32.728822,-114.654053,NG,GAS,62.6,,52372,0.6,0.14,0.47,0.73,0.16,0.07,0.27,83,89,77,80,52,67,89,80,91,73,81,56,67,86,0.35,0.05,0.3,0.4,0.16,0.06,0.12,0.38,0.04,0.33,0.46,0.18,0.06,0.12,3
438,2021,CA,1420 Coil Av #C,57310,33.794283,-118.241405,SUN,SOLAR,1.3,,180911,0.67,0.14,0.42,0.93,0.11,0.07,0.31,88,88,71,91,31,65,92,83,76,74,84,38,63,82,0.35,0.05,0.3,0.4,0.16,0.06,0.12,0.44,0.09,0.29,0.63,0.14,0.06,0.16,3
439,2021,CA,20333 Normandie PV LLC,65331,33.84614,-118.30019,SUN,SOLAR,2.6,,204361,0.54,0.13,0.24,0.83,0.17,0.06,0.14,78,88,44,85,57,58,67,65,75,49,72,65,55,56,0.35,0.05,0.3,0.4,0.16,0.06,0.12,0.44,0.09,0.29,0.63,0.14,0.06,0.16,3
440,2021,CA,2081 Terzian Solar Project,58918,36.67,-119.415833,SUN,SOLAR,1.2,,1773,0.55,0.04,0.43,0.68,0.13,0.05,0.14,79,71,72,77,42,52,68,68,44,75,55,50,49,57,0.35,0.05,0.3,0.4,0.16,0.06,0.12,0.44,0.09,0.29,0.63,0.14,0.06,0.16,3
441,2021,CA,2097 Helton Solar Project,58920,37.352222,-120.506944,SUN,SOLAR,1.5,,36703,0.57,0.06,0.43,0.71,0.11,0.06,0.23,80,78,72,79,29,60,84,69,55,75,58,36,58,72,0.35,0.05,0.3,0.4,0.16,0.06,0.12,0.44,0.09,0.29,0.63,0.14,0.06,0.16,3
442,2021,CA,2127 Harris Solar Project,58919,39.291667,-121.669722,SUN,SOLAR,1.3,,10780,0.53,0.07,0.43,0.63,0.14,0.09,0.29,77,81,72,75,42,80,90,64,60,75,51,50,79,80,0.35,0.05,0.3,0.4,0.16,0.06,0.12,0.44,0.09,0.29,0.63,0.14,0.06,0.16,3
443,2021,CA,2555 E Olympic Bl,57871,34.026944,-118.224167,SUN,SOLAR,1,,348458,0.74,0.22,0.55,0.93,0.1,0.06,0.41,92,93,84,91,26,57,96,90,88,87,86,32,55,90,0.35,0.05,0.3,0.4,0.16,0.06,0.12,0.44,0.09,0.29,0.63,0.14,0.06,0.16,3
444,2021,CA,85 A,52162,35.1011,-118.3372,WND,WIND,21.3,,166,0.29,0.02,0.36,0.21,0.3,0.02,0.14,49,61,63,41,89,21,69,27,32,67,10,91,19,58,0.35,0.05,0.3,0.4,0.16,0.06,0.12,0.44,0.09,0.29,0.63,0.14,0.06,0.16,3
445,2021,CA,85 B,52163,35.1011,-118.3372,WND,WIND,25.2,,166,0.29,0.02,0.36,0.21,0.3,0.02,0.14,49,61,63,41,89,21,69,27,32,67,10,91,19,58,0.35,0.05,0.3,0.4,0.16,0.06,0.12,0.44,0.09,0.29,0.63,0.14,0.06,0.16,3
446,2021,CA,A G Wishon,293,37.15105,-119.504724,WAT,HYDRO,12.8,,140,0.23,0,0.16,0.3,0.3,0.03,0.06,38,0,28,50,89,35,41,16,0,33,17,91,32,35,0.35,0.05,0.3,0.4,0.16,0.06,0.12,0.44,0.09,0.29,0.63,0.14,0.06,0.16,3
447,2021,CA,ABEC #2 dba West-Star Dairy,61501,35.472113,-119.432866,OBG,BIOMASS,1,,172,0.67,0.2,0.6,0.75,0.07,0.1,0.33,88,93,87,81,17,85,93,83,86,90,63,20,85,84,0.35,0.05,0.3,0.4,0.16,0.06,0.12,0.44,0.09,0.29,0.63,0.14,0.06,0.16,3
448,2021,CA,ABEC #3 dba Lakeview Dairy,61502,35.21426,-119.202974,OBG,BIOMASS,1,,48,0.48,0.06,0.41,0.56,0.18,0.04,0.23,73,76,69,71,60,41,84,57,52,72,44,67,39,72,0.35,0.05,0.3,0.4,0.16,0.06,0.12,0.44,0.09,0.29,0.63,0.14,0.06,0.16,3
449,2021,CA,ABEC #4 dba CE&S Dairy,61503,35.17306,-119.116384,OBG,BIOMASS,1,,62,0.49,0.06,0.41,0.56,0.18,0.04,0.23,73,76,69,71,59,41,84,57,53,72,44,67,39,73,0.35,0.05,0.3,0.4,0.16,0.06,0.12,0.44,0.09,0.29,0.63,0.14,0.06,0.16,3
450,2021,CA,ABEC Bidart-Old River LLC,58699,35.169722,-119.105556,OBG,BIOMASS,2,,69,0.48,0.06,0.41,0.56,0.18,0.04,0.23,73,76,69,71,60,41,84,57,52,72,44,67,39,72,0.35,0.05,0.3,0.4,0.16,0.06,0.12,0.44,0.09,0.29,0.63,0.14,0.06,0.16,3
451,2021,CA,Acorn I Energy Storage LLC,62874,34.196505,-118.931898,MWH,OTHF,2,,51388,0.23,0.04,0.14,0.33,0.18,0.06,0.04,39,72,25,53,61,58,31,17,45,29,20,68,56,27,0.35,0.05,0.3,0.4,0.16,0.06,0.12,0.44,0.09,0.29,0.63,0.14,0.06,0.16,3
452,2021,CA,Adapture CA2 LLC,59978,39.69898,-122.175583,SUN,SOLAR,1.5,,3506,0.45,0.02,0.4,0.5,0.19,0.06,0.31,70,66,69,67,63,57,91,52,37,72,38,69,54,82,0.35,0.05,0.3,0.4,0.16,0.06,0.12,0.44,0.09,0.29,0.63,0.14,0.06,0.16,3
453,2021,CA,Adelanto Solar II LLC,59440,34.557222,-117.3775,SUN,SOLAR,7,,30223,0.63,0.05,0.47,0.86,0.07,0.08,0.26,85,76,77,86,14,77,87,79,52,79,75,18,77,76,0.35,0.05,0.3,0.4,0.16,0.06,0.12,0.44,0.09,0.29,0.63,0.14,0.06,0.16,3
